[
  {
    "id": 7096,
    "name": "Orthodontie Schreurs",
    "street": "Wijnstraat",
    "house_number": "5",
    "postal_code": "6101 AK",
    "city": "Echt",
    "website": "https://orthodontieschreurs.nl/orthodontie/",
    "latitude": 51.105938,
    "longitude": 5.866581
  },
  {
    "id": 6308,
    "name": "SmileDesigner, Orthodontiepraktijk Dr. Christina von Massow",
    "street": "Groot Hertoginnelaan",
    "house_number": "7",
    "postal_code": "2517 EA",
    "city": "Den Haag",
    "website": "https://orthodontist-denhaag.nl/groot-hertoginnelaan-2/",
    "latitude": 52.085298,
    "longitude": 4.28488
  },
  {
    "id": 6316,
    "name": "Orthodontist Nijkerk",
    "street": "Van Siburgstraat",
    "house_number": "18b",
    "postal_code": "3863 HW",
    "city": "Nijkerk",
    "website": "https://orthodontistnijkerk.nl",
    "latitude": 52.208742,
    "longitude": 5.463887
  },
  {
    "id": 6310,
    "name": "Radboudumc - polikliniek voor orthodontie",
    "street": "Philips van Leydenlaan",
    "house_number": "25",
    "postal_code": "6525 EX",
    "city": "Nijmegen",
    "website": "https://www.radboudumc.nl/afdelingen/orthodontie",
    "latitude": 51.82142,
    "longitude": 5.858074
  },
  {
    "id": 6306,
    "name": "Orthodontistenpraktijk Venray",
    "street": "Hoogakker",
    "house_number": "17",
    "postal_code": "5802 MA",
    "city": "Venray",
    "website": "https://www.orthovenray.nl",
    "latitude": 51.531805,
    "longitude": 5.981882
  },
  {
    "id": 7184,
    "name": "Orthodontiepraktijk Almkerk",
    "street": "Provincialeweg Noord",
    "house_number": "22a",
    "postal_code": "4286 EA",
    "city": "Almkerk",
    "website": "https://uworthodontist.nl/",
    "latitude": 51.7712567,
    "longitude": 4.9526813
  },
  {
    "id": 7330,
    "name": "Verwijspraktijkdiamantlaan",
    "street": "Diamantlaan",
    "house_number": "15",
    "postal_code": "2132 WV",
    "city": "Hoofddorp",
    "website": "www.verwijspraktijkdiamantlaan.nl",
    "latitude": 52.292302,
    "longitude": 4.68532
  },
  {
    "id": 7130,
    "name": "Orthopost, Orthodontist In de Braekt",
    "street": "Engelenkampstraat",
    "house_number": "62",
    "postal_code": "6131 JJ",
    "city": "Sittard",
    "website": "https://orthopost.nl/",
    "latitude": 50.99646,
    "longitude": 5.866605
  },
  {
    "id": 6323,
    "name": "Orthodontiepraktijk Veldhuijzen van Zanten",
    "street": "Vrouwenlaan",
    "house_number": "127",
    "postal_code": "8017 HR",
    "city": "Zwolle",
    "website": "https://www.orthodontistzwolle.nl",
    "latitude": 52.495068,
    "longitude": 6.107435
  },
  {
    "id": 6326,
    "name": "UMCG afdeling Orthodontie",
    "street": "Hanzeplein",
    "house_number": "1",
    "postal_code": "9713 GZ",
    "city": "Groningen",
    "website": "https://www.umcg.nl/-/afdeling/orthodontie",
    "latitude": 53.222146,
    "longitude": 6.57575
  },
  {
    "id": 6328,
    "name": "Orthodontiepraktijk Leeuwarden",
    "street": "Schrans",
    "house_number": "57-59",
    "postal_code": "8932 NB",
    "city": "Leeuwarden",
    "website": "https://orthodontiepraktijk.nl",
    "latitude": 53.1957578,
    "longitude": 5.7985918
  },
  {
    "id": 6330,
    "name": "Orthodontiepraktijk Gouda",
    "street": "Dreef",
    "house_number": "1",
    "postal_code": "2803 HA",
    "city": "Gouda",
    "website": "https://orthodontiepraktijkgouda.nl/",
    "latitude": 52.022436,
    "longitude": 4.696933
  },
  {
    "id": 7132,
    "name": "Orthocenter Almere",
    "street": "Schoutstraat",
    "house_number": "118",
    "postal_code": "1315 EZ",
    "city": "Almere",
    "website": "https://www.orthocenter.nl/onze-orthodontiepraktijken/almere/",
    "latitude": 52.37411,
    "longitude": 5.216327
  },
  {
    "id": 6336,
    "name": "Orthodontiepraktijk Almelo",
    "street": "Twentheplein",
    "house_number": "1-H",
    "postal_code": "7607 GZ",
    "city": "Almelo",
    "website": "https://orthodontistalmelo.nl",
    "latitude": 52.3562388,
    "longitude": 6.658011
  },
  {
    "id": 7291,
    "name": "Orthodontiepraktijk Wageningen",
    "street": "Floralaan",
    "house_number": "3",
    "postal_code": "6707 HM",
    "city": "Wageningen",
    "website": "https://www.ortho-wageningen.nl",
    "latitude": 51.9733613,
    "longitude": 5.6682295
  },
  {
    "id": 6342,
    "name": "De Alkmaarse Orthodontisten",
    "street": "Comeniuslaan",
    "house_number": "6",
    "postal_code": "1817 MS",
    "city": "Alkmaar",
    "website": "https://blij-in-de-rij.nl/",
    "latitude": 52.63167,
    "longitude": 4.74861
  },
  {
    "id": 6346,
    "name": "Orthodontistenpraktijk Geldrop",
    "street": "Nieuwendijk",
    "house_number": "31",
    "postal_code": "5664 HB",
    "city": "Geldrop",
    "website": "https://www.orthogeldrop.nl",
    "latitude": 51.422696,
    "longitude": 5.55582
  },
  {
    "id": 6348,
    "name": "Kliniek voor Orthodontie Rotterdam",
    "street": "Mahatma Gandhistraat",
    "house_number": "10",
    "postal_code": "3066 VA",
    "city": "Rotterdam",
    "website": "https://www.orthorotterdam.nl",
    "latitude": 51.932293,
    "longitude": 4.56167
  },
  {
    "id": 7302,
    "name": "Orthodontisten Uithoorn",
    "street": "Koningin Julianalaan",
    "house_number": "45",
    "postal_code": "1421 DA",
    "city": "Uithoorn",
    "website": "ortho-uithoorn.nl",
    "latitude": 52.233535,
    "longitude": 4.832975
  },
  {
    "id": 6353,
    "name": "Orthodontiepraktijk Aelbers",
    "street": "Het Haagje",
    "house_number": "87",
    "postal_code": "7902 LD",
    "city": "Hoogeveen",
    "website": "https://orthodontie-hoogeveen.nl",
    "latitude": 52.721029,
    "longitude": 6.481818
  },
  {
    "id": 6364,
    "name": "Orthodontistenpraktijk Twente",
    "street": "Wierdensestraat",
    "house_number": "36",
    "postal_code": "7607 GJ",
    "city": "Almelo",
    "website": "https://orthoalmelo.nl",
    "latitude": 52.354938,
    "longitude": 6.659025
  },
  {
    "id": 6366,
    "name": "Ortho Spijkenisse",
    "street": "Seinestraat",
    "house_number": "100",
    "postal_code": "3207 CJ",
    "city": "Spijkenisse",
    "website": "https://www.orthospijkenisse.nl",
    "latitude": 51.847934,
    "longitude": 4.339755
  },
  {
    "id": 6367,
    "name": "Orthodontie Praktijk Barendrecht",
    "street": "Reling",
    "house_number": "113",
    "postal_code": "2993 DP",
    "city": "Barendrecht",
    "website": "https://www.ortho-barendrecht.nl",
    "latitude": 51.848708,
    "longitude": 4.502001
  },
  {
    "id": 6370,
    "name": "Orthodontistenpraktijk De Wereldlach",
    "street": "Schoutenhoek",
    "house_number": "1",
    "postal_code": "2722 EJ",
    "city": "Zoetermeer",
    "website": "https://www.wereldlach.nl",
    "latitude": 52.058296,
    "longitude": 4.498764
  },
  {
    "id": 6372,
    "name": "Ortho Roosendaal",
    "street": "Heuvellaan",
    "house_number": "52",
    "postal_code": "4702 TR",
    "city": "Roosendaal",
    "website": "https://www.orto.nl",
    "latitude": 51.541126,
    "longitude": 4.47032
  },
  {
    "id": 6374,
    "name": "Boersma & Boersma",
    "street": "Rijnlaan",
    "house_number": "35",
    "postal_code": "8032 JZ",
    "city": "Zwolle",
    "website": "https://www.boersma-tandheelkunde.nl",
    "latitude": 52.530191,
    "longitude": 6.099523
  },
  {
    "id": 7269,
    "name": "Orthodontisten Zutphen",
    "street": "Hogestraatje",
    "house_number": "3",
    "postal_code": "7201 CJ",
    "city": "Zutphen",
    "website": "https://orthodontistenzutphen.nl",
    "latitude": 52.14071,
    "longitude": 6.203078
  },
  {
    "id": 6379,
    "name": "Algera en Van Parys Orthodontisten",
    "street": "Mercuriusstraat",
    "house_number": "31",
    "postal_code": "2024 TL",
    "city": "Haarlem",
    "website": "https://www.algeravanparys.nl",
    "latitude": 52.403797,
    "longitude": 4.639646
  },
  {
    "id": 6381,
    "name": "Orthodontie Hoofddorp, Sint Jago Orthodontie",
    "street": "Hoofdweg",
    "house_number": "695",
    "postal_code": "2131 BD",
    "city": "Hoofddorp",
    "website": "https://orthodontiehoofddorp.nl",
    "latitude": 52.303924,
    "longitude": 4.689488
  },
  {
    "id": 7313,
    "name": "Team Leenarts- Jouw orthodontist",
    "street": "Van Gentstraat",
    "house_number": "56",
    "postal_code": "6524 BD",
    "city": "Nijmegen",
    "website": "https://www.teamleenarts.nl",
    "latitude": 51.839102,
    "longitude": 5.867203
  },
  {
    "id": 6387,
    "name": "OrthoTilburg",
    "street": "Haendellaan",
    "house_number": "52",
    "postal_code": "5011 LS",
    "city": "Tilburg",
    "website": "https://www.orthotilburg.nl",
    "latitude": 51.585157,
    "longitude": 5.084475
  },
  {
    "id": 6391,
    "name": "Orthodontistenpraktijk Weert",
    "street": "Recollectenstraat",
    "house_number": "2",
    "postal_code": "6001 AJ",
    "city": "Weert",
    "website": "https://orthoweert.nl",
    "latitude": 51.257475,
    "longitude": 5.710944
  },
  {
    "id": 6396,
    "name": "Orthodontie Amsterdam Zuid",
    "street": "Minervaplein",
    "house_number": "18",
    "postal_code": "1077 TR",
    "city": "Amsterdam",
    "website": "https://www.orthodontieamsterdam.nl/",
    "latitude": 52.34697,
    "longitude": 4.871028
  },
  {
    "id": 6398,
    "name": "Ortho Fleur",
    "street": "Parmentierstraat",
    "house_number": "15",
    "postal_code": "3772 MS",
    "city": "Barneveld",
    "website": "https://www.orthofleur.nl",
    "latitude": 52.129095,
    "longitude": 5.568177
  },
  {
    "id": 6400,
    "name": "Het beugel kwartier, Orthodontiepraktijk",
    "street": "Vlasakkerweg",
    "house_number": "46",
    "postal_code": "3811 MT",
    "city": "Amersfoort",
    "website": "https://www.orthosoestdijk.nl/",
    "latitude": 52.153073,
    "longitude": 5.379587
  },
  {
    "id": 6402,
    "name": "AlfaOrtho",
    "street": "Professor Kamerlingh Onneslaan",
    "house_number": "240",
    "postal_code": "3112 VM",
    "city": "Schiedam",
    "website": "https://alfaortho.nl/",
    "latitude": 51.9204081,
    "longitude": 4.4090124
  },
  {
    "id": 7287,
    "name": "Orthodontiepraktijk Schiedam",
    "street": "Burgemeester Knappertlaan",
    "house_number": "94",
    "postal_code": "3117 BC",
    "city": "Schiedam",
    "website": "https://ortho-schiedam.nl/",
    "latitude": 51.9115766,
    "longitude": 4.3928947
  },
  {
    "id": 6404,
    "name": "Orthodontiepraktijk van Zwol Terschelling",
    "street": "Torenstraat",
    "house_number": "52A",
    "postal_code": "8881 BL",
    "city": "Terschelling",
    "website": "https://orthodontievanzwol.nl/",
    "latitude": 53.3599695,
    "longitude": 5.2144525
  },
  {
    "id": 6406,
    "name": "Orthodontist Zoetermeer",
    "street": "Promenadeplein",
    "house_number": "119",
    "postal_code": "2711 AB",
    "city": "Zoetermeer",
    "website": "https://www.orthodontistzoetermeer.nl",
    "latitude": 52.060968,
    "longitude": 4.489312
  },
  {
    "id": 6408,
    "name": "Orthodontie Goirle",
    "street": "Baanakkerstraat",
    "house_number": "6",
    "postal_code": "5051 BD",
    "city": "Goirle",
    "website": "https://orthodontie-goirle.nl/",
    "latitude": 51.526905,
    "longitude": 5.062208
  },
  {
    "id": 6414,
    "name": "Orthodontiepraktijk Verhoef",
    "street": "Kareldoormanstraat",
    "house_number": "8",
    "postal_code": "3201 CG",
    "city": "Spijkenisse",
    "website": "https://orthoverhoef.nl",
    "latitude": 51.845,
    "longitude": 4.32917
  },
  {
    "id": 7195,
    "name": "Kindt en Reukers Orthodontisten, Lent",
    "street": "Dorpsplein",
    "house_number": "3",
    "postal_code": "6663 CS",
    "city": "Lent",
    "website": "https://www.kindtenreukers.nl",
    "latitude": 51.862898,
    "longitude": 5.866598
  },
  {
    "id": 7289,
    "name": "Orthodontisten Heemstede",
    "street": "Handellaan",
    "house_number": "2",
    "postal_code": "2102 CW",
    "city": "Heemstede",
    "website": "https://orthodontistenheemstede.nl/",
    "latitude": 52.3550018,
    "longitude": 4.6335338
  },
  {
    "id": 6427,
    "name": "Orthocenter Papendrecht",
    "street": "De Biezen",
    "house_number": "15",
    "postal_code": "3355 EN",
    "city": "Papendrecht",
    "website": "https://www.orthocenter.nl/onze-orthodontiepraktijken/papendrecht/",
    "latitude": 51.841523,
    "longitude": 4.698768
  },
  {
    "id": 6425,
    "name": "Orthodontie Amstelveen",
    "street": "Straat van Messina",
    "house_number": "17",
    "postal_code": "1183 HM",
    "city": "Amstelveen",
    "website": "https://orthoamstelveen.nl",
    "latitude": 52.311959,
    "longitude": 4.876304
  },
  {
    "id": 6422,
    "name": "Orthodontistenpraktijk Sint Anna",
    "street": "Sint Annastraat",
    "house_number": "292A",
    "postal_code": "6525 HD",
    "city": "Nijmegen",
    "website": "https://www.ortho-sintanna.nl",
    "latitude": 51.825675,
    "longitude": 5.856633
  },
  {
    "id": 6429,
    "name": "Ortho Oss",
    "street": "Obrechtstraat",
    "house_number": "29",
    "postal_code": "5344 AT",
    "city": "Oss",
    "website": "https://orthooss.nl",
    "latitude": 51.759915,
    "longitude": 5.516107
  },
  {
    "id": 6431,
    "name": "OPE: Orthodontisten Praktijk Eindhoven",
    "street": "Winkelcentrum Woensel",
    "house_number": "83C",
    "postal_code": "5625 AE",
    "city": "Eindhoven",
    "website": "https://www.ope.nl",
    "latitude": 51.470961,
    "longitude": 5.474492
  },
  {
    "id": 6435,
    "name": "Orthocenter Ypenburg",
    "street": "Brigantijnlaan",
    "house_number": "417",
    "postal_code": "2496 ZT",
    "city": "Den Haag",
    "website": "https://www.orthocenter.nl/onze-orthodontiepraktijken/den-haag-ypenburg/",
    "latitude": 52.054443,
    "longitude": 4.389554
  },
  {
    "id": 6437,
    "name": "Orthodontie Oud-Beijerland",
    "street": "Maseratilaan",
    "house_number": "5",
    "postal_code": "3261 NA",
    "city": "Oud-Beijerland",
    "website": "https://www.orthobeijerland.nl",
    "latitude": 51.815764,
    "longitude": 4.416861
  },
  {
    "id": 6439,
    "name": "Orthodontiepraktijk Sneek",
    "street": "Lemmerweg",
    "house_number": "1-3",
    "postal_code": "8608 AA",
    "city": "Sneek",
    "website": "https://www.orthodontiepraktijksneek.nl",
    "latitude": 53.028699,
    "longitude": 5.657707
  },
  {
    "id": 7121,
    "name": "Orthodontie aan de Maas",
    "street": "Lambertusplein",
    "house_number": "48",
    "postal_code": "5921 JK",
    "city": "Venlo",
    "website": "https://orthodontieaandemaas.nl/nl/",
    "latitude": 51.369097,
    "longitude": 6.154966
  },
  {
    "id": 7122,
    "name": null,
    "street": "Steenbakkersstraat",
    "house_number": "12",
    "postal_code": "5981 WT",
    "city": "Panningen",
    "website": null,
    "latitude": 51.329551,
    "longitude": 5.972859
  },
  {
    "id": 6447,
    "name": "Orthodontie Haarlem",
    "street": "Westerhoutpark",
    "house_number": "6",
    "postal_code": "2012 JM",
    "city": "Haarlem",
    "website": "https://www.orthohaarlem.nl",
    "latitude": 52.369456,
    "longitude": 4.623835
  },
  {
    "id": 6451,
    "name": "Orthodontiepraktijk Harderwijk",
    "street": "Deventerweg",
    "house_number": "9F",
    "postal_code": "3843 GA",
    "city": "Harderwijk",
    "website": "https://www.orthoharderwijk.nl",
    "latitude": 52.34167,
    "longitude": 5.62083
  },
  {
    "id": 6452,
    "name": "Airportho Utrecht",
    "street": "Vleutenseweg",
    "house_number": "386",
    "postal_code": "3532 HW",
    "city": "Utrecht",
    "website": "https://www.airportho-utrecht.nl",
    "latitude": 52.094068,
    "longitude": 5.090707
  },
  {
    "id": 6456,
    "name": "Orthodontist Hereplein",
    "street": "Hereplein",
    "house_number": "2",
    "postal_code": "9711 GA",
    "city": "Groningen",
    "website": "https://www.orthohereplein.nl",
    "latitude": 53.21385,
    "longitude": 6.568924
  },
  {
    "id": 6457,
    "name": "Orthodontiepraktijk Haren",
    "street": "Raadhuisplein",
    "house_number": "15",
    "postal_code": "9751 AN",
    "city": "Haren",
    "website": "https://www.orthoharen.nl",
    "latitude": 53.173338,
    "longitude": 6.603883
  },
  {
    "id": 6459,
    "name": "Van Dijk Orthodontisten",
    "street": "Boslaan",
    "house_number": "6",
    "postal_code": "7811 GJ",
    "city": "Emmen",
    "website": "https://vandijkorthodontisten.nl",
    "latitude": 52.788997,
    "longitude": 6.897999
  },
  {
    "id": 6461,
    "name": "Braceland Orthodontiepraktijk Oldenzaal",
    "street": "Oliemolenstraat",
    "house_number": "4",
    "postal_code": "7573 PC",
    "city": "Oldenzaal",
    "website": "http://www.braceland.nl/index.php?id=2",
    "latitude": 52.318998,
    "longitude": 6.934966
  },
  {
    "id": 6462,
    "name": "Braceland Orthodontiepraktijk Losser",
    "street": "Lutterstraat",
    "house_number": "4",
    "postal_code": "7581 BV",
    "city": "Losser",
    "website": "http://www.braceland.nl/index.php?id=11",
    "latitude": 52.26493,
    "longitude": 7.005085
  },
  {
    "id": 6464,
    "name": "Orthocenter Purmerend, orthodontist Ilias Mystakidis",
    "street": "Wielingenstraat",
    "house_number": "109",
    "postal_code": "1441 ZN",
    "city": "Purmerend",
    "website": "https://www.orthocenter.nl/onze-orthodontiepraktijken/purmerend/",
    "latitude": 52.504768,
    "longitude": 4.956249
  },
  {
    "id": 6470,
    "name": "Orthodontie Soestdijk",
    "street": "Mariastraat",
    "house_number": "1",
    "postal_code": "3762 CW",
    "city": "Soest",
    "website": "https://www.orthosoestdijk.nl/",
    "latitude": 52.185815,
    "longitude": 5.28109
  },
  {
    "id": 6472,
    "name": "Ortho aan de Zaan",
    "street": "Westzijde",
    "house_number": "174C",
    "postal_code": "1506 EK",
    "city": "Zaandam",
    "website": "https://orthoaandezaan.nl",
    "latitude": 52.44645,
    "longitude": 4.8192646
  },
  {
    "id": 6282,
    "name": "OrthoLeiden",
    "street": "Betaplein",
    "house_number": "32",
    "postal_code": "2321 KS",
    "city": "Leiden",
    "website": "https://ortholeiden.nl",
    "latitude": 52.145487,
    "longitude": 4.494439
  },
  {
    "id": 6476,
    "name": "Orthodontistenpraktijk Tiel",
    "street": "Tolhuiswal",
    "house_number": "33",
    "postal_code": "4001 LL",
    "city": "Tiel",
    "website": "https://orthotiel.nl",
    "latitude": 51.886077,
    "longitude": 5.439661
  },
  {
    "id": 6482,
    "name": "ACTA Orthodontie",
    "street": "Gustav Mahlerlaan",
    "house_number": "3004",
    "postal_code": "1081 LA",
    "city": "Amsterdam",
    "website": "https://acta.nl/nl/over-acta/meer-over/orthodontie",
    "latitude": 52.336151,
    "longitude": 4.861338
  },
  {
    "id": 7157,
    "name": "Orthodontie Merwedestein",
    "street": "Brinkwal",
    "house_number": "5",
    "postal_code": "3432 GA",
    "city": "Nieuwegein",
    "website": "https://www.orthomerwestein.nl/",
    "latitude": 52.027352,
    "longitude": 5.092022
  },
  {
    "id": 6486,
    "name": "Rechtetanden.nl",
    "street": "Rijnsburgerweg",
    "house_number": "7",
    "postal_code": "2334 BA",
    "city": "Leiden",
    "website": "https://rechtetanden.nl",
    "latitude": 52.168115,
    "longitude": 4.48228
  },
  {
    "id": 6490,
    "name": "Orthodontiepraktijk Ramdat Misier",
    "street": "Waddenweg",
    "house_number": "355",
    "postal_code": "2134 XL",
    "city": "Hoofddorp",
    "website": "https://www.orthohoofddorp.nl",
    "latitude": 52.322847,
    "longitude": 4.656437
  },
  {
    "id": 6492,
    "name": "Henneman - van Hees Orthodontisten Etten-Leur",
    "street": "Van Rooylaan",
    "house_number": "144",
    "postal_code": "4871 TZ",
    "city": "Etten-Leur",
    "website": "https://hennemanvanhees.squarespace.com/praktijk-etten-leur",
    "latitude": 51.578873,
    "longitude": 4.649464
  },
  {
    "id": 6493,
    "name": "Henneman van Hees Orthodontisten Oosterhout",
    "street": "Mathildastraat",
    "house_number": "10",
    "postal_code": "4901 HC",
    "city": "Oosterhout",
    "website": "https://hennemanvanhees.squarespace.com/praktijk-oosterhout",
    "latitude": 51.64344,
    "longitude": 4.862745
  },
  {
    "id": 7059,
    "name": "Top Ortho Driebergen",
    "street": "Bosstraat",
    "house_number": "12",
    "postal_code": "3971 XE",
    "city": "Driebergen-Rijsenburg",
    "website": "https://www.toportho.nl/praktijken/toportho-driebergen/",
    "latitude": 52.0533271,
    "longitude": 5.2816926
  },
  {
    "id": 7288,
    "name": "Top Ortho Woerden",
    "street": "Molenvlietbaan",
    "house_number": "1",
    "postal_code": "3448 DD",
    "city": "Woerden",
    "website": "https://www.toportho.nl/praktijken/toportho-woerden/",
    "latitude": 52.0780624,
    "longitude": 4.8638101
  },
  {
    "id": 6503,
    "name": "Orthodontistenpraktijk Boxmeer",
    "street": "Akkerdistel",
    "house_number": "4",
    "postal_code": "5831 PJ",
    "city": "Boxmeer",
    "website": "https://boxbeugel.nl",
    "latitude": 51.657571,
    "longitude": 5.941834
  },
  {
    "id": 6507,
    "name": "Orthodontiepraktijk Hilversum",
    "street": "'s-Gravelandseweg",
    "house_number": "86B",
    "postal_code": "1217 EW",
    "city": "Hilversum",
    "website": "https://orthodontiepraktijkhilversum.nl",
    "latitude": 52.23243,
    "longitude": 5.159353
  },
  {
    "id": 6513,
    "name": "Judith Spijkers, Orthodontist",
    "street": "Westersingel",
    "house_number": "79-81",
    "postal_code": "4611 MK",
    "city": "Bergen op Zoom",
    "website": "https://orthospijkers.nl",
    "latitude": 51.4949553,
    "longitude": 4.2823856
  },
  {
    "id": 6517,
    "name": "Orthodontie Martini",
    "street": "Van Swietenplein",
    "house_number": "1",
    "postal_code": "9728 NT",
    "city": "Groningen",
    "website": "https://orthodontiemartini.nl",
    "latitude": 53.191668,
    "longitude": 6.551752
  },
  {
    "id": 6519,
    "name": "Ortho Denti Monnickendam",
    "street": "Vesting",
    "house_number": "6",
    "postal_code": "1141 TS",
    "city": "Monnickendam",
    "website": "https://orthodenti.nl",
    "latitude": 52.457549,
    "longitude": 5.031936
  },
  {
    "id": 6520,
    "name": "Ortho Denti Volendam",
    "street": "Dukaton",
    "house_number": "23",
    "postal_code": "1132 RA",
    "city": "Volendam",
    "website": "https://www.orthodenti.nl",
    "latitude": 52.504949,
    "longitude": 5.062183
  },
  {
    "id": 6522,
    "name": "OrthoCare Orthodontiepraktijk Leusden",
    "street": "De Smidse",
    "house_number": "4",
    "postal_code": "3831 NT",
    "city": "Leusden",
    "website": "https://www.orthocareleusden.nl",
    "latitude": 52.129221,
    "longitude": 5.428438
  },
  {
    "id": 6527,
    "name": "Orthodontie Barneveld",
    "street": "Langstraat",
    "house_number": "14",
    "postal_code": "3771 BE",
    "city": "Barneveld",
    "website": "https://orthobarneveld.nl",
    "latitude": 52.139814,
    "longitude": 5.584446
  },
  {
    "id": 6536,
    "name": "Orthodontistenpraktijk dr. R.E.G. Jonkman",
    "street": "Onyxdijk",
    "house_number": "195",
    "postal_code": "4706 LL",
    "city": "Roosendaal",
    "website": "https://ortho-jonkman.nl",
    "latitude": 51.518582,
    "longitude": 4.490083
  },
  {
    "id": 6537,
    "name": "Orthodontistenpraktijk dr. R.E.G. Jonkman",
    "street": "J.R. Thorbeckesingel",
    "house_number": "4",
    "postal_code": "3354 AP",
    "city": "Papendrecht",
    "website": "https://www.ortho-jonkman.nl",
    "latitude": 51.831471,
    "longitude": 4.699184
  },
  {
    "id": 6544,
    "name": "Northo Orthodontistenpraktijk Amsterdam Noord",
    "street": "Gare du Nord",
    "house_number": "1",
    "postal_code": "1022 LD",
    "city": "Amsterdam",
    "website": "https://northo.nl",
    "latitude": 52.401825,
    "longitude": 4.930368
  },
  {
    "id": 6547,
    "name": "Ortho Uden",
    "street": "Boekelsedijk",
    "house_number": "2a",
    "postal_code": "5404 NK",
    "city": "Uden",
    "website": "https://orthouden.nl",
    "latitude": 51.654538,
    "longitude": 5.6281
  },
  {
    "id": 6552,
    "name": "Orthodontistenpraktijk Deurne",
    "street": "Tramstraat",
    "house_number": "20",
    "postal_code": "5751 JK",
    "city": "Deurne",
    "website": "https://orthodeurne.nl/",
    "latitude": 51.456352,
    "longitude": 5.789932
  },
  {
    "id": 6558,
    "name": "Orthopraktijk Capelle",
    "street": "Hollandsch Diep",
    "house_number": "63a",
    "postal_code": "2904 EP",
    "city": "Capelle aan den IJssel",
    "website": "https://orthocapelle.nl",
    "latitude": 51.9363468,
    "longitude": 4.600322
  },
  {
    "id": 6559,
    "name": "Ortho Berkel",
    "street": "Zilvergracht",
    "house_number": "119",
    "postal_code": "2652 HV",
    "city": "Berkel & Rodenrijs",
    "website": "https://www.orthoberkel.nl",
    "latitude": 51.990896,
    "longitude": 4.455798
  },
  {
    "id": 7231,
    "name": "Ortho Heijnen Geleen",
    "street": "Kluis",
    "house_number": "32",
    "postal_code": "6165 EM",
    "city": "Geleen",
    "website": "https://www.orthoheijnen.nl/",
    "latitude": 50.962028,
    "longitude": 5.833837
  },
  {
    "id": 7107,
    "name": "Orthodontiepraktijk Verburgh",
    "street": "Mathenessestraat",
    "house_number": "57 A-1",
    "postal_code": "4834 EA",
    "city": "Breda",
    "website": "https://orthoverburgh.nl/",
    "latitude": 51.574886,
    "longitude": 4.803234
  },
  {
    "id": 6568,
    "name": "Orthodontiepraktijk Hilversum",
    "street": "'s-Gravelandseweg",
    "house_number": "86B",
    "postal_code": "1217 EW",
    "city": "Hilversum",
    "website": "https://orthodontiepraktijkhilversum.nl",
    "latitude": 52.261809,
    "longitude": 5.147953
  },
  {
    "id": 7316,
    "name": "Orthodontiepraktijk Zaandam",
    "street": "Ds. Martin Luther Kingweg",
    "house_number": "154",
    "postal_code": "1503 KW",
    "city": "Zaandam",
    "website": "https://www.orthodontiepraktijkzaandam.nl",
    "latitude": 52.446279,
    "longitude": 4.834098
  },
  {
    "id": 6571,
    "name": "Orthodontiepraktijk Drachten",
    "street": "Gauke Boelensstraat",
    "house_number": "6",
    "postal_code": "9203 RM",
    "city": "Drachten",
    "website": "https://orthodontiepraktijkdrachten.nl/",
    "latitude": 53.103352,
    "longitude": 6.096049
  },
  {
    "id": 6584,
    "name": "Orthospecialist-Delft",
    "street": "Koningsplein",
    "house_number": "10",
    "postal_code": "2611 XD",
    "city": "Delft",
    "website": "https://www.orthospecialist.nl/delft/",
    "latitude": 52.016929,
    "longitude": 4.35299
  },
  {
    "id": 6590,
    "name": "Kliniek voor Tandheelkunde Tholen, orthodontist W. Buytaert",
    "street": "Kaaij",
    "house_number": "14",
    "postal_code": "4691 EE",
    "city": "Tholen",
    "website": "https://tandartstholen.nl",
    "latitude": 51.5318503,
    "longitude": 4.2233655
  },
  {
    "id": 6594,
    "name": "Kerbusch Orthodontie",
    "street": "Groningensingel",
    "house_number": "1047",
    "postal_code": "6835 GN",
    "city": "Arnhem",
    "website": "https://kerbuschorthodontie.nl",
    "latitude": 51.952511,
    "longitude": 5.905726
  },
  {
    "id": 6597,
    "name": "Jort - Jouw Orthodontist",
    "street": "Kapelweg",
    "house_number": "10",
    "postal_code": "3566 MK",
    "city": "Utrecht",
    "website": "https://jort-utrecht.nl",
    "latitude": 52.11647,
    "longitude": 5.138655
  },
  {
    "id": 7324,
    "name": "Orthodontistenpraktijk Meppelweg",
    "street": "Meppelweg",
    "house_number": "453",
    "postal_code": "2544 AL",
    "city": "Den Haag",
    "website": "orthomeppelweg.nl",
    "latitude": 52.052217,
    "longitude": 4.266708
  },
  {
    "id": 7325,
    "name": "Orthodontistenpraktijk Wateringseveld",
    "street": "Laan Van Wateringse Veld",
    "house_number": "183",
    "postal_code": "2548 BK",
    "city": "Den Haag",
    "website": "https://orthomeppelweg.nl/",
    "latitude": 52.033792,
    "longitude": 4.283852
  },
  {
    "id": 6605,
    "name": "Van 't Veen, Orthodontist",
    "street": "Westlandseweg",
    "house_number": "15",
    "postal_code": "2624 AA",
    "city": "Delft",
    "website": "https://vantveenorthodontist.nl",
    "latitude": 52.002539,
    "longitude": 4.355152
  },
  {
    "id": 6607,
    "name": "Jongsma & Jongsma Orthodontisten",
    "street": "Polderweg",
    "house_number": "11-15",
    "postal_code": "1782 EC",
    "city": "Den Helder",
    "website": "https://orthodontist-denhelder.nl",
    "latitude": 52.9599869,
    "longitude": 4.759369
  },
  {
    "id": 6611,
    "name": "Orthodontistenpraktijk Zinad",
    "street": "Zijpendaalseweg",
    "house_number": "59a",
    "postal_code": "6814 CD",
    "city": "Arnhem",
    "website": "https://orthosonsbeek.nl",
    "latitude": 51.987579,
    "longitude": 5.900939
  },
  {
    "id": 7186,
    "name": "Orthodontiepraktijk Putten",
    "street": "Dorpsstraat",
    "house_number": "113",
    "postal_code": "3881 BC",
    "city": "Putten",
    "website": "https://mijnorthodontistputten.nl/",
    "latitude": 52.2598957,
    "longitude": 5.5999157
  },
  {
    "id": 6615,
    "name": "OrthoSpecialst Leidschenveen",
    "street": "Jaap Hoekdreef",
    "house_number": "36",
    "postal_code": "2492 JS",
    "city": "Den Haag",
    "website": null,
    "latitude": 52.064907,
    "longitude": 4.401201
  },
  {
    "id": 6617,
    "name": "Orthodontistenpraktijk Schoonderbeek",
    "street": "Toutenburgh",
    "house_number": "3",
    "postal_code": "8303 CP",
    "city": "Emmeloord",
    "website": "https://orthoemmeloord.nl",
    "latitude": 52.707919,
    "longitude": 5.738971
  },
  {
    "id": 6618,
    "name": "Orthodontistenpraktijk Heerenveen Centrum",
    "street": "Burgemeester Falkenaweg",
    "house_number": "18B",
    "postal_code": "8442 LD",
    "city": "Heerenveen",
    "website": "https://www.orthodontistenpraktijkheerenveen.nl",
    "latitude": 52.955911,
    "longitude": 5.927619
  },
  {
    "id": 6620,
    "name": "Orthodontiepraktijk Groeneveld",
    "street": "Marinus Postlaan",
    "house_number": "7",
    "postal_code": "8264 PB",
    "city": "Kampen",
    "website": "https://orthokids.nl",
    "latitude": 52.557044,
    "longitude": 5.895446
  },
  {
    "id": 7207,
    "name": "Orthodontie Paterswolde",
    "street": "Hoofdweg",
    "house_number": "179",
    "postal_code": "9765 CC",
    "city": "Paterswolde",
    "website": "https://www.orthopaterswolde.nl/",
    "latitude": 53.144749,
    "longitude": 6.565702
  },
  {
    "id": 6624,
    "name": "Mondzorgcentrum Winschoten, Orthodontist Krista Janssen",
    "street": "Vincent van Goghlaan",
    "house_number": "4a",
    "postal_code": "9671 CK",
    "city": "Winschoten",
    "website": "https://mondzorgcentrum-winschoten.nl",
    "latitude": 53.145426,
    "longitude": 7.043211
  },
  {
    "id": 6627,
    "name": "Orthopraktijk N. van Moerkercke, Terneuzen",
    "street": "Industrieweg",
    "house_number": "16",
    "postal_code": "4538 AH",
    "city": "Terneuzen",
    "website": "https://orthoterneuzen.com",
    "latitude": 51.326421,
    "longitude": 3.828282
  },
  {
    "id": 6628,
    "name": "Orthopraktijk N. van Moerkercke, Oostburg",
    "street": "Nieuwstraat",
    "house_number": "59",
    "postal_code": "4501 BC",
    "city": "Oostburg",
    "website": "https://www.ortho-oostburg.com",
    "latitude": 51.324243,
    "longitude": 3.486973
  },
  {
    "id": 7295,
    "name": "Orthospecialist Waddinxveen",
    "street": "Kerkweg-Oost",
    "house_number": "151",
    "postal_code": "2741 HC",
    "city": "Waddinxveen",
    "website": null,
    "latitude": 52.044496,
    "longitude": 4.654344
  },
  {
    "id": 6636,
    "name": "Orthodontiepraktijk van Gemert",
    "street": "Kaldenkerkerweg",
    "house_number": "25",
    "postal_code": "5913 AB",
    "city": "Venlo",
    "website": "https://orthovenlo.nl",
    "latitude": 51.363619,
    "longitude": 6.174704
  },
  {
    "id": 6641,
    "name": "Orthowaalwijk",
    "street": "Vredesplein",
    "house_number": "20",
    "postal_code": "5142 RA",
    "city": "Waalwijk",
    "website": "https://orthowaalwijk.nl",
    "latitude": 51.6873674,
    "longitude": 5.0713099
  },
  {
    "id": 6643,
    "name": "Orthodontiepraktijk Heerenveen",
    "street": "Lanenburg",
    "house_number": "3",
    "postal_code": "8441 GP",
    "city": "Heerenveen",
    "website": "https://orthoheerenveen.nl",
    "latitude": 52.961372,
    "longitude": 5.924145
  },
  {
    "id": 6646,
    "name": "Ortho Katwijk",
    "street": "Achterweg",
    "house_number": "6",
    "postal_code": "2223 BE",
    "city": "Katwijk",
    "website": "https://www.orthokatwijk.nl/",
    "latitude": 52.194153,
    "longitude": 4.423022
  },
  {
    "id": 6647,
    "name": "Erasmus MC",
    "street": "Dr. Molewaterplein",
    "house_number": "40",
    "postal_code": "3015 GD",
    "city": "Rotterdam",
    "website": "https://www.erasmusmc.nl/nl-nl/sophia/patientenzorg/specialismen/orthodontie",
    "latitude": 51.91155,
    "longitude": 4.467521
  },
  {
    "id": 7126,
    "name": "Marion van Agen, Orthodontist",
    "street": "Tramstraat",
    "house_number": "2A",
    "postal_code": "7001 CH",
    "city": "Doetinchem",
    "website": "https://www.mvanagenorthodontist.nl/",
    "latitude": 51.96761,
    "longitude": 6.28432
  },
  {
    "id": 6651,
    "name": "Ortho-Huizen",
    "street": "Baanbergenweg",
    "house_number": "46",
    "postal_code": "1271 TW",
    "city": "Huizen",
    "website": "https://ortho-huizen.nl",
    "latitude": 52.304495,
    "longitude": 5.235438
  },
  {
    "id": 6656,
    "name": "OrthoSmileHolten",
    "street": "Gaardenstraat",
    "house_number": "32",
    "postal_code": "7451 CW",
    "city": "Holten",
    "website": "http://www.ortho.nu",
    "latitude": 52.281393,
    "longitude": 6.418141
  },
  {
    "id": 6658,
    "name": "Orthodontie Ridderkerk",
    "street": "Jan Luykenstraat",
    "house_number": "4",
    "postal_code": "2985 BV",
    "city": "Ridderkerk",
    "website": "https://orthodontieridderkerk.nl",
    "latitude": 51.866407,
    "longitude": 4.604037
  },
  {
    "id": 7217,
    "name": "Ortho Heerlen",
    "street": "Akerstraat",
    "house_number": "75",
    "postal_code": "6417 BJ",
    "city": "Heerlen",
    "website": "https://orthoheerlen.nl",
    "latitude": 50.882935,
    "longitude": 5.983629
  },
  {
    "id": 7219,
    "name": "Ortho Assumburg",
    "street": "Laan van Assumburg",
    "house_number": "97",
    "postal_code": "1962 TL",
    "city": "Heemskerk",
    "website": "https://www.orthoassumburg.nl",
    "latitude": 52.509024,
    "longitude": 4.681768
  },
  {
    "id": 7317,
    "name": "Ortho Den Bosch",
    "street": "Schubertsingel",
    "house_number": "32",
    "postal_code": "5216 XA",
    "city": "'s-Hertogenbosch",
    "website": null,
    "latitude": 51.679527,
    "longitude": 5.326274
  },
  {
    "id": 7318,
    "name": "Orthodontiepraktijk Vught",
    "street": "Helvoirtseweg",
    "house_number": "134",
    "postal_code": "5263 EH",
    "city": "Vught",
    "website": null,
    "latitude": 51.656655,
    "longitude": 5.288152
  },
  {
    "id": 6674,
    "name": "Orthodontiepraktijk Schuttelaar",
    "street": "Hemelsley",
    "house_number": "14",
    "postal_code": "6136 HM",
    "city": "Sittard",
    "website": "https://orthoschuttelaar.nl",
    "latitude": 51.006106,
    "longitude": 5.875012
  },
  {
    "id": 6696,
    "name": "SmileDesigner Den Haag Zuid, Orthodontiepraktijk Dr. Christina von Massow",
    "street": "Margaretha van Hennebergweg",
    "house_number": "71",
    "postal_code": "2552 BE",
    "city": "Den Haag",
    "website": "https://orthodontist-denhaag.nl/margaretha-van-hennebergweg-2/",
    "latitude": 52.045068,
    "longitude": 4.241149
  },
  {
    "id": 6684,
    "name": "Bokhout en Prahl Orthodontisten",
    "street": "Sarphatistraat",
    "house_number": "2a",
    "postal_code": "1017 WS",
    "city": "Amsterdam",
    "website": "https://bokhoutenprahl.nl",
    "latitude": 52.359745,
    "longitude": 4.901766
  },
  {
    "id": 6690,
    "name": "Zijlweg Orthodontie",
    "street": "Zijlweg",
    "house_number": "148 B-2",
    "postal_code": "2015 BJ",
    "city": "Haarlem",
    "website": "https://zijlwegorthodontie.nl",
    "latitude": 52.3860774,
    "longitude": 4.618706
  },
  {
    "id": 7103,
    "name": "Orthodontisten Onderweg",
    "street": "Castellumstraat",
    "house_number": "1 E",
    "postal_code": "2405 CB",
    "city": "Alphen aan den Rijn",
    "website": "https://www.ortho-onderweg.nl/",
    "latitude": 52.128867,
    "longitude": 4.659847
  },
  {
    "id": 6699,
    "name": "Orthodontiepraktijk R.P.S. The B.V.",
    "street": "Statenlaan",
    "house_number": "92",
    "postal_code": "2582 GT",
    "city": "Den Haag",
    "website": "https://the.eu",
    "latitude": 52.093703,
    "longitude": 4.273274
  },
  {
    "id": 6703,
    "name": "Muller Praktijk voor Orthodontie Amsterdam Zuid",
    "street": "Handelstraat",
    "house_number": "11",
    "postal_code": "1077 DK",
    "city": "Amsterdam",
    "website": "https://praktijk-muller.nl",
    "latitude": 52.348316,
    "longitude": 4.880948
  },
  {
    "id": 7151,
    "name": "Orthodontiepraktijk P.H.T. Oey",
    "street": "Oldenzaalsestraat",
    "house_number": "130",
    "postal_code": "7514 DS",
    "city": "Enschede",
    "website": "geen website",
    "latitude": 52.224894,
    "longitude": 6.900089
  },
  {
    "id": 6707,
    "name": "Verstraaten en Hoogeveen Orthodontisten",
    "street": "Kloosterstraat",
    "house_number": "10",
    "postal_code": "9401 KD",
    "city": "Assen",
    "website": "https://orthodontieassen.nl",
    "latitude": 52.9929641,
    "longitude": 6.564981
  },
  {
    "id": 7262,
    "name": "Orthodontie Zwielich",
    "street": "Stephensonstraat",
    "house_number": "35",
    "postal_code": "1097 BA",
    "city": "Amsterdam",
    "website": "https://www.zwielich.nl",
    "latitude": 52.349551,
    "longitude": 4.919064
  },
  {
    "id": 7266,
    "name": "Orthodontist M.L. Koning",
    "street": "Pieter Calandlaan",
    "house_number": "136",
    "postal_code": "1068 NR",
    "city": "Amsterdam",
    "website": "https://www.koningortho.nl",
    "latitude": 52.354915,
    "longitude": 4.81065
  },
  {
    "id": 6715,
    "name": "Ortho Maarssen",
    "street": "Harmonieplein",
    "house_number": "3",
    "postal_code": "3603 BM",
    "city": "Maarssen",
    "website": "https://orthomaarssen.nl",
    "latitude": 52.139482,
    "longitude": 5.039472
  },
  {
    "id": 7304,
    "name": "Ortho Leidschendam-Voorburg",
    "street": "Burgemeester Feithplein",
    "house_number": "96",
    "postal_code": "2273 BW",
    "city": "Voorburg",
    "website": "www.ortho-lv.nl",
    "latitude": 52.074849,
    "longitude": 4.361725
  },
  {
    "id": 7117,
    "name": "Mondzorgpraktijk Middelburg, Orthodontist V. Gonzalez-Costa",
    "street": "Bellinkplein",
    "house_number": "1",
    "postal_code": "4331 GZ",
    "city": "Middelburg",
    "website": "https://www.makdo.nl/behandelingen/orthodontie-middelburg/",
    "latitude": 51.49939,
    "longitude": 3.618311
  },
  {
    "id": 7159,
    "name": "Orthodontistenpraktijk Haven",
    "street": "Haven",
    "house_number": "6-8",
    "postal_code": "2161 HK",
    "city": "Lisse",
    "website": "https://ortho-haven.nl/",
    "latitude": 52.25702,
    "longitude": 4.557416
  },
  {
    "id": 6729,
    "name": "Kelderman Orthodontie, Zeist",
    "street": "Laan van Beek en Royen",
    "house_number": "8",
    "postal_code": "3701 AH",
    "city": "Zeist",
    "website": "https://orthozeist.nl",
    "latitude": 52.081886,
    "longitude": 5.243097
  },
  {
    "id": 7309,
    "name": "Orthodontistenpraktijk Culemborg",
    "street": "De Raaf",
    "house_number": "7",
    "postal_code": "4102 DG",
    "city": "Culemborg",
    "website": "https://www.orthoculemborg.nl",
    "latitude": 51.951819,
    "longitude": 5.230979
  },
  {
    "id": 6732,
    "name": "Ortho Billet 's Gravenzande",
    "street": "Langestraat",
    "house_number": "47",
    "postal_code": "2691 BB",
    "city": "'s-Gravenzande",
    "website": "https://orthobillet.nl/sgravenzande/",
    "latitude": 52.003925,
    "longitude": 4.16019
  },
  {
    "id": 6733,
    "name": "Ortho Billet Maassluis",
    "street": "Noordvliet",
    "house_number": "19",
    "postal_code": "3142 CH",
    "city": "Maassluis",
    "website": "https://orthobillet.nl/maassluis/",
    "latitude": 51.922903,
    "longitude": 4.254938
  },
  {
    "id": 6734,
    "name": "Ortho Billet Vlaardingen",
    "street": "Hoflaan",
    "house_number": "47",
    "postal_code": "3134 AC",
    "city": "Vlaardingen",
    "website": "https://orthobillet.nl/vlaardingen/",
    "latitude": 51.909779,
    "longitude": 4.344728
  },
  {
    "id": 6743,
    "name": "Orthodontiepraktijk Binda, Ede",
    "street": "Telefoonweg",
    "house_number": "132",
    "postal_code": "6713 AL",
    "city": "Ede",
    "website": "https://ortho-ede.nl",
    "latitude": 52.0426949,
    "longitude": 5.6667949
  },
  {
    "id": 6745,
    "name": "Orthobest",
    "street": "Nieuwstraat",
    "house_number": "77a",
    "postal_code": "5683 KB",
    "city": "Best",
    "website": "https://orthobest.nl",
    "latitude": 51.515768,
    "longitude": 5.399428
  },
  {
    "id": 6752,
    "name": "Orthodontistenpraktijk Dominicus Mattheeuws",
    "street": "Campenhoefdreef",
    "house_number": "7",
    "postal_code": "5045 NZ",
    "city": "Tilburg",
    "website": "https://mijnorthodontist.nl",
    "latitude": 51.578916,
    "longitude": 4.998187
  },
  {
    "id": 7306,
    "name": "Orthodontistenpraktijk Horst",
    "street": "Americaanseweg",
    "house_number": "48",
    "postal_code": "5961 GR",
    "city": "Horst",
    "website": "https://www.orthohorst.nl/",
    "latitude": 51.450352,
    "longitude": 6.045651
  },
  {
    "id": 6756,
    "name": "Orthodontisten Haarlem",
    "street": "Menno Simonszplein",
    "house_number": "8",
    "postal_code": "2014 SC",
    "city": "Haarlem",
    "website": "https://orthodontistenhaarlem.nl",
    "latitude": 52.3766199,
    "longitude": 4.6173496
  },
  {
    "id": 6758,
    "name": "Top Orthodontie",
    "street": "Bisschopstraat",
    "house_number": "39",
    "postal_code": "7513 AJ",
    "city": "Enschede",
    "website": "https://beugel.nu",
    "latitude": 52.218917,
    "longitude": 6.885906
  },
  {
    "id": 6761,
    "name": "J.E.M. van Os orthodontist",
    "street": "Notenboomstraat",
    "house_number": "11",
    "postal_code": "7141 AB",
    "city": "Groenlo",
    "website": "https://orthovanos.nl",
    "latitude": 52.043139,
    "longitude": 6.616439
  },
  {
    "id": 7171,
    "name": "Henneman-van Hees Orthodontisten Breda",
    "street": "Heeckerenstraat",
    "house_number": "100",
    "postal_code": "4834 LR",
    "city": "Breda",
    "website": "https://hennemanvanhees.squarespace.com/praktijk-breda",
    "latitude": 51.573224,
    "longitude": 4.809481
  },
  {
    "id": 6765,
    "name": "Octant Orthodontie Mw. G.C.E.M. Heiligers, orthodontist",
    "street": "Nieuwe Steen",
    "house_number": "8",
    "postal_code": "1625 HV",
    "city": "Hoorn",
    "website": "https://www.octantmondzorg.nl/medewerkers-praktijk-mw-g-c-e-m-heiligers/",
    "latitude": 52.654304,
    "longitude": 5.066904
  },
  {
    "id": 6767,
    "name": "OrthoDoetinchem",
    "street": "Amphionstraat",
    "house_number": "69",
    "postal_code": "7001 DP",
    "city": "Doetinchem",
    "website": "https://orthodoetinchem.nl",
    "latitude": 51.967689,
    "longitude": 6.293312
  },
  {
    "id": 6769,
    "name": "Orthodontiepraktijk Wilhelminapark",
    "street": "Wilhelminapark",
    "house_number": "60",
    "postal_code": "3581 NP",
    "city": "Utrecht",
    "website": "https://orthodontiepraktijkwilhelminapark.nl",
    "latitude": 52.085688,
    "longitude": 5.138384
  },
  {
    "id": 6773,
    "name": "Ortholie, praktijk voor orthodontie",
    "street": "Strevelsweg",
    "house_number": "700-610",
    "postal_code": "3083 AS",
    "city": "Rotterdam",
    "website": "https://ortholie.nl",
    "latitude": 51.8893699,
    "longitude": 4.4985679
  },
  {
    "id": 6775,
    "name": "Top Ortho Zwolle",
    "street": "Stationsweg",
    "house_number": "5",
    "postal_code": "8011 CZ",
    "city": "Zwolle",
    "website": "https://www.toportho.nl/praktijken/toportho-zwolle/",
    "latitude": 52.507479,
    "longitude": 6.091425
  },
  {
    "id": 7215,
    "name": "Orthodontie Greter",
    "street": "Jan Smitzlaan",
    "house_number": "12",
    "postal_code": "5611 LE",
    "city": "Eindhoven",
    "website": "https://www.orthogreter.nl/",
    "latitude": 51.432713,
    "longitude": 5.481762
  },
  {
    "id": 7255,
    "name": "Orthodontistenpraktijk Mignon van Loenen",
    "street": "Koninginneweg",
    "house_number": "37",
    "postal_code": "1217 KS",
    "city": "Hilversum",
    "website": "https://www.omvl.nl/",
    "latitude": 52.230459,
    "longitude": 5.172468
  },
  {
    "id": 7196,
    "name": "J.W.Booij Orthodontist",
    "street": "Schelluinsevliet",
    "house_number": "5",
    "postal_code": "4203 NB",
    "city": "Gorinchem",
    "website": "https://orthodontistgorinchem.nl/",
    "latitude": 51.831499,
    "longitude": 4.964126
  },
  {
    "id": 7094,
    "name": "Orthodontistenpraktijk Veenendaal",
    "street": "Industrielaan",
    "house_number": "24",
    "postal_code": "3903 AD",
    "city": "Veenendaal",
    "website": "https://www.ortho-veenendaal.nl/",
    "latitude": 52.017193,
    "longitude": 5.55755
  },
  {
    "id": 7254,
    "name": "Orthodontiepraktijk Blaricum",
    "street": "Stroomzijde",
    "house_number": "2",
    "postal_code": "1261 ZW",
    "city": "Blaricum",
    "website": "https://opblaricum.nl/",
    "latitude": 52.290497,
    "longitude": 5.270905
  },
  {
    "id": 6813,
    "name": "Orthodontistenpraktijk OrthoMere",
    "street": "Trojestraat",
    "house_number": "60",
    "postal_code": "1363 VL",
    "city": "Almere",
    "website": "https://orthomere.nl",
    "latitude": 52.355798,
    "longitude": 5.153697
  },
  {
    "id": 7120,
    "name": "Ortho Blijdorp",
    "street": "Beukelsdijk",
    "house_number": "107",
    "postal_code": "3021 AE",
    "city": "Rotterdam",
    "website": "https://www.orthoblijdorp.nl/",
    "latitude": 51.921449,
    "longitude": 4.457005
  },
  {
    "id": 6819,
    "name": "Orthospecialist Benoordenhout",
    "street": "Johannes Bildersstraat",
    "house_number": "13",
    "postal_code": "2596 EE",
    "city": "Den Haag",
    "website": "https://orthospecialist.nl",
    "latitude": 52.092215,
    "longitude": 4.322544
  },
  {
    "id": 6821,
    "name": "Orthodontistenpraktijk Beckmann",
    "street": "Frambozenstraat",
    "house_number": "86",
    "postal_code": "2564 XN",
    "city": "Den Haag",
    "website": "https://ortho-beckmann.nl",
    "latitude": 52.070264,
    "longitude": 4.254729
  },
  {
    "id": 7109,
    "name": "Praktijk voor Orthodontie Vlissingen",
    "street": "Papegaaienburg",
    "house_number": "48",
    "postal_code": "4386 DA",
    "city": "Vlissingen",
    "website": "https://orthopeerlings.nl/welkom.html",
    "latitude": 51.465089,
    "longitude": 3.583053
  },
  {
    "id": 6827,
    "name": "Kusters Orthodontie",
    "street": "Arnhemseweg",
    "house_number": "5",
    "postal_code": "6901 DS",
    "city": "Zevenaar",
    "website": "https://www.kustersorthodontie.nl/",
    "latitude": 51.928227,
    "longitude": 6.074548
  },
  {
    "id": 6831,
    "name": "Orthodontiepraktijk Arjan Singh",
    "street": "Maria Theresialaan",
    "house_number": "95",
    "postal_code": "6042 AK",
    "city": "Roermond",
    "website": "https://orthosingh.nl",
    "latitude": 51.191936,
    "longitude": 5.996126
  },
  {
    "id": 6833,
    "name": "Orthocenter Hengelo",
    "street": "Wolter ten Catestraat",
    "house_number": "54",
    "postal_code": "7551 HZ",
    "city": "Hengelo",
    "website": "https://orthocenter.nl/onze-orthodontiepraktijken/hengelo/",
    "latitude": 52.26248,
    "longitude": 6.798656
  },
  {
    "id": 6837,
    "name": "Orthodontia",
    "street": "Oudedijk",
    "house_number": "115",
    "postal_code": "3062 AD",
    "city": "Rotterdam",
    "website": "https://orthodontia.nl",
    "latitude": 51.926971,
    "longitude": 4.511
  },
  {
    "id": 6839,
    "name": "Orthodontiepraktijk Amsterdam Oost-Diemen",
    "street": "Middenweg",
    "house_number": "331",
    "postal_code": "1098 AT",
    "city": "Amsterdam",
    "website": "https://ortho-diemen.nl",
    "latitude": 52.34765,
    "longitude": 4.94101
  },
  {
    "id": 7226,
    "name": "Orthodontistenpraktijk Bonoort",
    "street": "Mennonietenweg",
    "house_number": "16",
    "postal_code": "6702 AD",
    "city": "Wageningen",
    "website": "www.bonoort-orthodontist.nl",
    "latitude": 51.9675,
    "longitude": 5.655097
  },
  {
    "id": 6846,
    "name": "Orthodontie Centrum Drachten",
    "street": "Noordkade",
    "house_number": "17",
    "postal_code": "9203 CC",
    "city": "Drachten",
    "website": "https://www.orthocentrumdrachten.nl",
    "latitude": 53.10715,
    "longitude": 6.100246
  },
  {
    "id": 6847,
    "name": "Van Asperen Tandheelkunde, Orthodontist Nikola Marko",
    "street": "Snekerstraat",
    "house_number": "83",
    "postal_code": "8701 XC",
    "city": "Bolsward",
    "website": "https://www.vanasperentandheelkunde.frl/behandelingen/orthodontie/",
    "latitude": 53.060553,
    "longitude": 5.537953
  },
  {
    "id": 6849,
    "name": "Orthocenter Oostplein",
    "street": "Oostplein",
    "house_number": "422",
    "postal_code": "3061 CH",
    "city": "Rotterdam",
    "website": "https://www.orthocenter.nl/onze-orthodontiepraktijken/rotterdam-oostplein/",
    "latitude": 51.923616,
    "longitude": 4.497348
  },
  {
    "id": 6851,
    "name": "Orthodontistenpraktijk Leenstra",
    "street": "Zevenhontseweg",
    "house_number": "3",
    "postal_code": "5231 GZ",
    "city": "Den Bosch",
    "website": "https://ortholeenstra.nl",
    "latitude": 51.708636,
    "longitude": 5.315329
  },
  {
    "id": 7170,
    "name": "Huisinga Orthodontie",
    "street": "Dorpsstraat",
    "house_number": "14",
    "postal_code": "1901 EL",
    "city": "Castricum",
    "website": "https://www.huisinga-orthodontie.nl/",
    "latitude": 52.545343,
    "longitude": 4.661202
  },
  {
    "id": 6857,
    "name": "Orthospecialist Alphen aan den Rijn",
    "street": "Dotterboem",
    "house_number": "1",
    "postal_code": "2408 LA",
    "city": "Alphen aan den Rijn",
    "website": "https://www.orthospecialist.nl/alphen-aan-den-rijn/",
    "latitude": 52.12023,
    "longitude": 4.643234
  },
  {
    "id": 6861,
    "name": "ArnhemOrtho",
    "street": "Geert Grootestraat",
    "house_number": "2",
    "postal_code": "6822 HJ",
    "city": "Arnhem",
    "website": "https://arnhemortho.nl",
    "latitude": 51.993143,
    "longitude": 5.92904
  },
  {
    "id": 7181,
    "name": "Orthodontiepraktijk Raadsheer",
    "street": "Th\u00e9r\u00e8se Schwartzestraat",
    "house_number": "49",
    "postal_code": "1328 CA",
    "city": "Almere",
    "website": "https://www.orthoraadsheer.nl/",
    "latitude": 52.379706,
    "longitude": 5.259124
  },
  {
    "id": 6865,
    "name": "Ortho-Helmond",
    "street": "Kromme Steenweg",
    "house_number": "23",
    "postal_code": "5707 CA",
    "city": "Helmond",
    "website": "https://orthohelmond.nl",
    "latitude": 51.478255,
    "longitude": 5.648192
  },
  {
    "id": 6867,
    "name": "OrthoGoes",
    "street": "Stationspark",
    "house_number": "43",
    "postal_code": "4462 DZ",
    "city": "Goes",
    "website": "https://orthogoes.tandartsennet.nl/",
    "latitude": 51.496383,
    "longitude": 3.892967
  },
  {
    "id": 6869,
    "name": "Apeldoorn Orthodontie Welgelegen",
    "street": "Burg. Jhr. Quarles van Uffordlaan",
    "house_number": "103",
    "postal_code": "7321 ZN",
    "city": "Apeldoorn",
    "website": "https://apeldoornorthodontie.nl",
    "latitude": 52.213855,
    "longitude": 5.9755
  },
  {
    "id": 6870,
    "name": "Orthodontiepraktijk Nieuwegein",
    "street": "Zoomstede",
    "house_number": "13",
    "postal_code": "3431 HK",
    "city": "Nieuwegein",
    "website": "https://www.orthonieuwegein.nl",
    "latitude": 52.026618,
    "longitude": 5.084737
  },
  {
    "id": 6871,
    "name": "Orthodontiepraktijk Houten",
    "street": "De Molen",
    "house_number": "86",
    "postal_code": "3995 AX",
    "city": "Houten",
    "website": "https://www.orthohouten.nl",
    "latitude": 52.031982,
    "longitude": 5.170441
  },
  {
    "id": 7277,
    "name": "Ortho Velp",
    "street": "Vijverlaan",
    "house_number": "3",
    "postal_code": "6881 HJ",
    "city": "Velp",
    "website": "https://orthovelp.nl/",
    "latitude": 51.996186,
    "longitude": 5.975054
  },
  {
    "id": 6884,
    "name": "Ortho 013",
    "street": "Olympiaplein",
    "house_number": "391",
    "postal_code": "5022 DX",
    "city": "Tilburg",
    "website": "https://ortho013.nl",
    "latitude": 51.540133,
    "longitude": 5.07629
  },
  {
    "id": 6892,
    "name": "Dental Clinics Weesp",
    "street": "Nieuwstad",
    "house_number": "36",
    "postal_code": "1381 CC",
    "city": "Weesp",
    "website": "https://www.dentalclinics.nl/tandarts/weesp/",
    "latitude": 52.307055,
    "longitude": 5.040268
  },
  {
    "id": 6835,
    "name": "Orthocenter Amsterdam West, Orthodontist Y. Natan",
    "street": "Radarweg",
    "house_number": "525",
    "postal_code": "1043 NZ",
    "city": "Amsterdam",
    "website": "https://www.orthocenter.nl/onze-orthodontiepraktijken/amsterdam-west/",
    "latitude": 52.383796,
    "longitude": 4.837962
  },
  {
    "id": 6902,
    "name": "Orthodontiepraktijk Pereboom-Berghuis",
    "street": "Oude Arnhemseweg",
    "house_number": "190",
    "postal_code": "3705 BH",
    "city": "Zeist",
    "website": "https://orthopereboom.nl",
    "latitude": 52.091185,
    "longitude": 5.232853
  },
  {
    "id": 7101,
    "name": "Ortho aan de Vecht",
    "street": "Korte Muiderweg",
    "house_number": "2",
    "postal_code": "1382 LR",
    "city": "Weesp",
    "website": "https://www.orthoaandevecht.nl/",
    "latitude": 52.311596,
    "longitude": 5.046659
  },
  {
    "id": 6909,
    "name": "Ortho Hellevoetsluis BV",
    "street": "De Sprong",
    "house_number": "1",
    "postal_code": "3224 HC",
    "city": "Hellevoetsluis",
    "website": "https://orthohellevoetsluis.nl",
    "latitude": 51.832324,
    "longitude": 4.150855
  },
  {
    "id": 6913,
    "name": "P. Otte Orthodontist",
    "street": "St. Ignatiusstraat",
    "house_number": "291",
    "postal_code": "4817 KK",
    "city": "Breda",
    "website": "https://orthodontistbreda.nl",
    "latitude": 51.593355,
    "longitude": 4.803831
  },
  {
    "id": 6915,
    "name": "Orthodontistenpraktijk Wagemans",
    "street": "Looierstraat",
    "house_number": "15",
    "postal_code": "6411 AA",
    "city": "Heerlen",
    "website": "https://orthowagemans.nl",
    "latitude": 50.887811,
    "longitude": 5.970803
  },
  {
    "id": 6917,
    "name": "Orthodontiepraktijk Gooris",
    "street": "Steijnlaan",
    "house_number": "108",
    "postal_code": "4818 EW",
    "city": "Breda",
    "website": "https://orthogooris.nl",
    "latitude": 51.578016,
    "longitude": 4.796125
  },
  {
    "id": 6928,
    "name": "Orthodontiepraktijk Amsterdam-Amstelveen, Tj.W.Swart Orthodontist",
    "street": "Van Boshuizenstraat",
    "house_number": "697",
    "postal_code": "1082 AZ",
    "city": "Amsterdam",
    "website": "https://orthodontiepraktijkamsterdam-amstelveen.nl",
    "latitude": 52.324477,
    "longitude": 4.869866
  },
  {
    "id": 7270,
    "name": "Orthodontische praktijk Veldhoven",
    "street": "Burg. v. Hoofflaan",
    "house_number": "2A",
    "postal_code": "5503 BN",
    "city": "Veldhoven",
    "website": "https://orthodontistveldhoven.nl/",
    "latitude": 51.411247,
    "longitude": 5.410965
  },
  {
    "id": 6934,
    "name": "Ortho Tan",
    "street": "Straatweg",
    "house_number": "67",
    "postal_code": "3051 BD",
    "city": "Rotterdam",
    "website": "https://orthotan.nl",
    "latitude": 51.945631,
    "longitude": 4.48306
  },
  {
    "id": 6938,
    "name": "Orthocenter Utrecht Oudenoord, Orthodontist M. Kuramae",
    "street": "Oudenoord",
    "house_number": "501",
    "postal_code": "3513 EP",
    "city": "Utrecht",
    "website": "https://www.orthocenter.nl/onze-orthodontiepraktijken/utrecht-oudenoord/",
    "latitude": 52.102116,
    "longitude": 5.108413
  },
  {
    "id": 6940,
    "name": "C.M. Weststrate B.V.",
    "street": "Mr. F.A. van Hallweg",
    "house_number": "38",
    "postal_code": "1181 ZT",
    "city": "Amstelveen",
    "website": "https://beugels.nu",
    "latitude": 52.302363,
    "longitude": 4.855067
  },
  {
    "id": 6942,
    "name": "P.C. Wering Orthodontist",
    "street": "Wernerlaan",
    "house_number": "1",
    "postal_code": "1213 AR",
    "city": "Hilversum",
    "website": "https://ortho-hilversum.nl",
    "latitude": 52.219776,
    "longitude": 5.179433
  },
  {
    "id": 6944,
    "name": "Orthodontistenpraktijk Valkenswaard",
    "street": "Geenhovensedreef",
    "house_number": "28 B",
    "postal_code": "5552 BD",
    "city": "Valkenswaard",
    "website": "https://orthovalkenswaard.nl",
    "latitude": 51.361881,
    "longitude": 5.456952
  },
  {
    "id": 6947,
    "name": "van Zanden Orthodontie Vlaardingen",
    "street": "Reigerlaan",
    "house_number": "53",
    "postal_code": "3136 JJ",
    "city": "Vlaardingen",
    "website": "https://vanzandenorthodontie.nl/contact/van-zanden-orthodontie-vlaardingen/",
    "latitude": 51.930226,
    "longitude": 4.353131
  },
  {
    "id": 6951,
    "name": "Orthodontistenpraktijk Meppel",
    "street": "Woldstraat",
    "house_number": "59",
    "postal_code": "7941 LG",
    "city": "Meppel",
    "website": "https://orthodontistenmeppel.nl",
    "latitude": 52.698505,
    "longitude": 6.193592
  },
  {
    "id": 6955,
    "name": "Orthodontiepraktijk de Botter",
    "street": "Haagwinde",
    "house_number": "10",
    "postal_code": "8245 HW",
    "city": "Lelystad",
    "website": "https://orthodebotter.nl",
    "latitude": 52.503057,
    "longitude": 5.461958
  },
  {
    "id": 6961,
    "name": "Orthodontistenpraktijk Nijmegen Dukenburg BV",
    "street": "Zwanenveld",
    "house_number": "9080",
    "postal_code": "6538 SC",
    "city": "Nijmegen",
    "website": "https://orthodukenburg.nl",
    "latitude": 51.822624,
    "longitude": 5.797628
  },
  {
    "id": 6963,
    "name": "Orthodontistenpraktijk Veghel",
    "street": "Stadhuisplein",
    "house_number": "47",
    "postal_code": "5461 KP",
    "city": "Veghel",
    "website": "https://orthoveghel.nl",
    "latitude": 51.6145836,
    "longitude": 5.5457187
  },
  {
    "id": 6965,
    "name": "Van Waveren Hogervorst Orthodontie",
    "street": "Kerklaan",
    "house_number": "39",
    "postal_code": "7311 AC",
    "city": "Apeldoorn",
    "website": "https://orthoapeldoorn.nl",
    "latitude": 52.218333,
    "longitude": 5.958889
  },
  {
    "id": 6967,
    "name": "Kelderman Orthodontie, Bilthoven",
    "street": "Nachtegaallaan",
    "house_number": "9",
    "postal_code": "3722 AA",
    "city": "Bilthoven",
    "website": "https://orthobilthoven.nl",
    "latitude": 52.127007,
    "longitude": 5.205025
  },
  {
    "id": 6970,
    "name": "Orthodontiepraktijk Deventer",
    "street": "Brink",
    "house_number": "24",
    "postal_code": "7411 BS",
    "city": "Deventer",
    "website": "https://orthodontiepraktijkdeventer.nl",
    "latitude": 52.252108,
    "longitude": 6.161018
  },
  {
    "id": 6972,
    "name": "Orthodontie Rotterdam Noord",
    "street": "Voorburgstraat",
    "house_number": "298B",
    "postal_code": "3037BS",
    "city": "Rotterdam",
    "website": "https://orthodontienoord.nl",
    "latitude": 52.348679,
    "longitude": 4.837451
  },
  {
    "id": 6974,
    "name": "Orthodontiepraktijk Wijchen",
    "street": "'t Slotje",
    "house_number": "5",
    "postal_code": "6603 JC",
    "city": "Wijchen",
    "website": "https://orthowijchen.nl",
    "latitude": 51.796511,
    "longitude": 5.741161
  },
  {
    "id": 6978,
    "name": "Orthocenter Groningen Zuid",
    "street": "Queridolaan",
    "house_number": "5",
    "postal_code": "9721 SZ",
    "city": "Groningen",
    "website": "https://orthocenter.nl/onze-orthodontiepraktijken/groningen-zuid/",
    "latitude": 53.19146,
    "longitude": 6.570977
  },
  {
    "id": 6979,
    "name": "Orthocenter Hoogezand",
    "street": "Burgemeester Tuinstraat",
    "house_number": "26",
    "postal_code": "9602 CZ",
    "city": "Hoogezand",
    "website": "https://www.orthocenter.nl/onze-orthodontiepraktijken/hoogezand/",
    "latitude": 53.1569533,
    "longitude": 6.7535563
  },
  {
    "id": 6981,
    "name": "Orthodontistenpraktijk Roelofs",
    "street": "Dordrechtweg",
    "house_number": "8",
    "postal_code": "6843 DM",
    "city": "Arnhem",
    "website": "https://orthoarnhem.nl",
    "latitude": 51.961241,
    "longitude": 5.857998
  },
  {
    "id": 7299,
    "name": "OrthoNova",
    "street": "August Alleb\u00e9plein",
    "house_number": "13",
    "postal_code": "1062 AB",
    "city": "Amsterdam",
    "website": null,
    "latitude": 52.363478,
    "longitude": 4.836572
  },
  {
    "id": 7297,
    "name": "Bovend\u2019Eerdt Orthodontie BV",
    "street": "Orthen",
    "house_number": "51",
    "postal_code": "5231 XP",
    "city": "'s-Hertogenbosch",
    "website": "Www.orthobovendeerdt.nl",
    "latitude": 51.706661,
    "longitude": 5.302745
  },
  {
    "id": 7099,
    "name": "Orthodontiepraktijk het Gooi",
    "street": "Vossiuslaan",
    "house_number": "71",
    "postal_code": "1401 RS",
    "city": "Bussum",
    "website": "https://www.orthohetgooi.nl/",
    "latitude": 52.279865,
    "longitude": 5.164748
  },
  {
    "id": 7011,
    "name": "Noverraz Orthodontie",
    "street": "Kroonprinsstraat",
    "house_number": "1",
    "postal_code": "1312 BE",
    "city": "Almere",
    "website": "https://www.orthoalmere.nl",
    "latitude": 52.374531,
    "longitude": 5.209786
  },
  {
    "id": 7193,
    "name": "Ortho Dorth",
    "street": "Leerparkpromenade",
    "house_number": "120",
    "postal_code": "3312 KW",
    "city": "Dordrecht",
    "website": "https://www.orthodordt.nl/",
    "latitude": 51.798817,
    "longitude": 4.679959
  },
  {
    "id": 7028,
    "name": "TopOrtho Hengelo",
    "street": "Grundellaan",
    "house_number": "15",
    "postal_code": "7552 EC",
    "city": "Hengelo",
    "website": "https://www.toportho.nl/praktijken/toportho-hengelo/",
    "latitude": 52.261841,
    "longitude": 6.805662
  },
  {
    "id": 7034,
    "name": "Verstraaten Orthodontist",
    "street": "Westerhoutpark",
    "house_number": "6",
    "postal_code": "2012 JM",
    "city": "Haarlem",
    "website": "https://orthodontieassen.nl",
    "latitude": 53.274148,
    "longitude": 6.689801
  },
  {
    "id": 7160,
    "name": "Orthodontiepraktijk Hardenberg",
    "street": "Hof van Pepijn",
    "house_number": "11",
    "postal_code": "7772 CW",
    "city": "Hardenberg",
    "website": "https://www.orthohardenberg.nl/",
    "latitude": 52.575055,
    "longitude": 6.624859
  },
  {
    "id": 7308,
    "name": "Sanders Mello Orthodontie",
    "street": "Kerkstraat",
    "house_number": "16",
    "postal_code": "2242 HG",
    "city": "Wassenaar",
    "website": "https://www.sandersmello.nl/nl/",
    "latitude": 52.143164,
    "longitude": 4.3931
  },
  {
    "id": 7310,
    "name": "Orthocenter Amsterdam-Noord,  Orthodontist Nikolaos Karpitsaris",
    "street": "Buikslotermeerplein",
    "house_number": "416",
    "postal_code": "1025 WP",
    "city": "Amsterdam",
    "website": "https://www.orthocenter.nl/onze-orthodontiepraktijken/amsterdam-noord/",
    "latitude": 52.397342,
    "longitude": 4.940833
  },
  {
    "latitude": 51.9163035,
    "longitude": 4.3884517,
    "name": "Roemeens Orthodoxe Parochie",
    "street": "",
    "house_number": "",
    "postal_code": "",
    "city": "",
    "website": "",
    "phone": ""
  },
  {
    "latitude": 50.8741238,
    "longitude": 6.0198543,
    "name": "Sporthotel Landgraaf",
    "street": "Witte Wereld",
    "house_number": "1",
    "postal_code": "6372VG",
    "city": "Landgraaf",
    "website": "https://www.snowworld.com/landgraaf/nl/hotel",
    "phone": "+31 45 547 0656"
  },
  {
    "latitude": 52.3025983,
    "longitude": 6.5003169,
    "name": "Syrisch-Orthodoxe kerk",
    "street": "",
    "house_number": "",
    "postal_code": "",
    "city": "",
    "website": "",
    "phone": ""
  },
  {
    "latitude": 51.836531,
    "longitude": 4.9559626,
    "name": "Bronkhorst Orthopedische Schoentechniek",
    "street": "Twijnderstraat",
    "house_number": "1",
    "postal_code": "4204EL",
    "city": "Gorinchem",
    "website": "",
    "phone": ""
  },
  {
    "latitude": 52.0897609,
    "longitude": 4.3406514,
    "name": "Orthodox Jewish Synagogue",
    "street": "Cornelis Houtmanstraat",
    "house_number": "11",
    "postal_code": "2593RD",
    "city": "'s-Gravenhage",
    "website": "https://www.joodsdenhaag.nl",
    "phone": "+31 70 347 3201"
  },
  {
    "latitude": 52.0769516,
    "longitude": 4.7516467,
    "name": "Sporthoeve",
    "street": "Vromade",
    "house_number": "1",
    "postal_code": "2411LG",
    "city": "Bodegraven",
    "website": "",
    "phone": ""
  },
  {
    "latitude": 52.6645383,
    "longitude": 4.8269689,
    "name": "BraceTime",
    "street": "Middenwaard",
    "house_number": "100",
    "postal_code": "1703SH",
    "city": "Heerhugowaard",
    "website": "https://bracetimeheerhugowaard.nl/",
    "phone": ""
  },
  {
    "latitude": 52.1954238,
    "longitude": 5.4312137,
    "name": "Ortholuna orthodontie - Vathorst",
    "street": "Wouda",
    "house_number": "17",
    "postal_code": "3825MA",
    "city": "Amersfoort",
    "website": "https://ortholuna.nl/",
    "phone": "+31 33 494 4296"
  },
  {
    "latitude": 51.9105155,
    "longitude": 4.4786001,
    "name": "Orthodontix",
    "street": "Gedempte Zalmhaven",
    "house_number": "999",
    "postal_code": "3011BT",
    "city": "Rotterdam",
    "website": "",
    "phone": ""
  },
  {
    "latitude": 50.9454517,
    "longitude": 5.7996562,
    "name": "Spronken Orthopedie",
    "street": "",
    "house_number": "",
    "postal_code": "",
    "city": "",
    "website": "",
    "phone": ""
  },
  {
    "latitude": 51.9938066,
    "longitude": 4.476061,
    "name": "TMOrthodontie",
    "street": "Herenstraat",
    "house_number": "18",
    "postal_code": "2651CB",
    "city": "Berkel en Rodenrijs",
    "website": "https://www.tmorthodontie.nl",
    "phone": ""
  },
  {
    "latitude": 52.0041823,
    "longitude": 4.3517212,
    "name": "Orthocenter Delft",
    "street": "Van Saenredamstraat",
    "house_number": "1A",
    "postal_code": "2613NS",
    "city": "Delft",
    "website": "https://www.orthocenter.nl",
    "phone": ""
  },
  {
    "latitude": 52.0651914,
    "longitude": 4.4910549,
    "name": "Praktijk voor Orthodontie en Implantologie Zoetermeer",
    "street": "Coppeliaschouw",
    "house_number": "3",
    "postal_code": "2726JK",
    "city": "Zoetermeer",
    "website": "https://www.orthozoetermeer.nl",
    "phone": ""
  },
  {
    "latitude": 51.9213662,
    "longitude": 4.494198,
    "name": "Ton Jansen orthopedische schoentechnieken",
    "street": "Burgemeester van Walsumweg",
    "house_number": "522",
    "postal_code": "3011MZ",
    "city": "Rotterdam",
    "website": "",
    "phone": ""
  },
  {
    "latitude": 52.0188315,
    "longitude": 4.4303355,
    "name": "Clover orthodontiepraktijk",
    "street": "Ackershof",
    "house_number": "67",
    "postal_code": "2641BL",
    "city": "Pijnacker",
    "website": "https://www.cloverorthodontie.nl/",
    "phone": "+31 15 241 0023"
  },
  {
    "latitude": 52.1328665,
    "longitude": 6.2009838,
    "name": "Orthopedagogisch centrum Zozijn",
    "street": "Bachstraat",
    "house_number": "2",
    "postal_code": "7204NT",
    "city": "Zutphen",
    "website": "https://www.zozijn.nl/locaties/kindercentrum-speeldoos-zutphen",
    "phone": ""
  },
  {
    "latitude": 52.3097878,
    "longitude": 6.5193304,
    "name": "PVM",
    "street": "Huttenwal",
    "house_number": "42",
    "postal_code": "7462AC",
    "city": "Rijssen",
    "website": "",
    "phone": ""
  },
  {
    "latitude": 52.1497058,
    "longitude": 5.3840987,
    "name": "Eemland Orthopedie",
    "street": "Leusderweg",
    "house_number": "17",
    "postal_code": "3811NK",
    "city": "Amersfoort",
    "website": "",
    "phone": ""
  },
  {
    "latitude": 52.2255044,
    "longitude": 5.9918108,
    "name": "Sprenkelaar Tandartsen en Orthodontie (SPTO)",
    "street": "Agricolastraat",
    "house_number": "46",
    "postal_code": "7323JJ",
    "city": "Apeldoorn",
    "website": "https://www.spto.nl/",
    "phone": "+31 55 785 9705"
  },
  {
    "latitude": 52.0885182,
    "longitude": 5.1219078,
    "name": "Orthofex",
    "street": "Hamburgerstraat",
    "house_number": "2",
    "postal_code": "3512NR",
    "city": "Utrecht",
    "website": "https://www.orthofex.nl/",
    "phone": ""
  },
  {
    "latitude": 52.1955061,
    "longitude": 5.3892934,
    "name": "Ortholuna",
    "street": "Maanlander",
    "house_number": "16",
    "postal_code": "3824MP",
    "city": "Amersfoort",
    "website": "https://ortholuna.com",
    "phone": ""
  },
  {
    "latitude": 52.4317033,
    "longitude": 6.0743064,
    "name": "Heetkamp Orthopedische Schoentechnieken",
    "street": "Klapperdijk",
    "house_number": "34b",
    "postal_code": "8191AE",
    "city": "Wapenveld",
    "website": "https://www.heetkamporthopedie.nl",
    "phone": "+31 38 4470997"
  },
  {
    "latitude": 51.9870815,
    "longitude": 5.8975103,
    "name": "Russisch Orthodoxe Kerk",
    "street": "Amsterdamseweg",
    "house_number": "96",
    "postal_code": "6814GG",
    "city": "Arnhem",
    "website": "",
    "phone": ""
  },
  {
    "latitude": 51.8898271,
    "longitude": 4.6868195,
    "name": "OrthoClinic Nieuw-Lekkerland",
    "street": "Adriaan Heijnisstraat",
    "house_number": "4b",
    "postal_code": "2957AA",
    "city": "Nieuw-Lekkerland",
    "website": "https://www.orthoclinic.nl/",
    "phone": "+31 85 077 0440"
  },
  {
    "latitude": 52.0679024,
    "longitude": 4.2882861,
    "name": "Orthocenter",
    "street": "Steijnlaan",
    "house_number": "182",
    "postal_code": "2571SB",
    "city": "'s-Gravenhage",
    "website": "",
    "phone": ""
  },
  {
    "latitude": 52.0800542,
    "longitude": 4.2947705,
    "name": "Creatief Orthopedagoog",
    "street": "Witte de Withstraat",
    "house_number": "192",
    "postal_code": "2518CZ",
    "city": "'s-Gravenhage",
    "website": "",
    "phone": ""
  },
  {
    "latitude": 52.0868221,
    "longitude": 4.3119915,
    "name": "Orthodox Klooster van de Geboorte van de Heilige Johannes de Voorloper",
    "street": "Dr. Kuyperstraat",
    "house_number": "2",
    "postal_code": "2514BB",
    "city": "'s-Gravenhage",
    "website": "https://johannesdevoorloper.nl",
    "phone": ""
  },
  {
    "latitude": 52.6924204,
    "longitude": 6.1950859,
    "name": "Orthodontist Munninghoff",
    "street": "Stationsweg",
    "house_number": "33",
    "postal_code": "7941HC",
    "city": "Meppel",
    "website": "",
    "phone": ""
  },
  {
    "latitude": 53.1985423,
    "longitude": 6.5675602,
    "name": "Brink Orthopedie",
    "street": "Van Lenneplaan",
    "house_number": "5",
    "postal_code": "9721PC",
    "city": "Groningen",
    "website": "https://www.brinkorthopedie.nl/",
    "phone": ""
  },
  {
    "latitude": 51.8157879,
    "longitude": 4.6422144,
    "name": "Orthocenter",
    "street": "Stationsweg",
    "house_number": "41",
    "postal_code": "3331LR",
    "city": "Zwijndrecht",
    "website": "https://www.orthocenter.nl/onze-orthodontiepraktijken/zwijndrecht/",
    "phone": ""
  },
  {
    "latitude": 52.3431232,
    "longitude": 4.7744143,
    "name": "Sporthoeve",
    "street": "Snelliuslaan",
    "house_number": "1",
    "postal_code": "1171CZ",
    "city": "Badhoevedorp",
    "website": "https://www.desporthoeve.nl",
    "phone": ""
  },
  {
    "latitude": 51.8040566,
    "longitude": 4.7022715,
    "name": "Yogi Orthopedagogiek en Trainingen",
    "street": "Jan Valsterweg",
    "house_number": "80",
    "postal_code": "3315LG",
    "city": "Dordrecht",
    "website": "",
    "phone": ""
  },
  {
    "latitude": 53.2081779,
    "longitude": 6.5709893,
    "name": "Orthodontie Groningerhof",
    "street": "Vechtstraat",
    "house_number": "56",
    "postal_code": "9725CW",
    "city": "Groningen",
    "website": "https://www.orthodontiegroningerhof.nl/",
    "phone": "+31 50 525 0487"
  },
  {
    "latitude": 51.8483138,
    "longitude": 4.327412,
    "name": "Plexus Orthopedie",
    "street": "Marrewijklaan",
    "house_number": "8",
    "postal_code": "3201BH",
    "city": "Spijkenisse",
    "website": "https://plexus-orthopedie.nl/",
    "phone": ""
  },
  {
    "latitude": 51.8477592,
    "longitude": 4.3293467,
    "name": "Orthodontist Verhoef",
    "street": "Raadhuislaan",
    "house_number": "91",
    "postal_code": "3201EM",
    "city": "Spijkenisse",
    "website": "https://orthoverhoef.nl/",
    "phone": ""
  },
  {
    "latitude": 51.3288122,
    "longitude": 3.8387839,
    "name": "Orthocenter",
    "street": "Guido Gezellestraat",
    "house_number": "12",
    "postal_code": "4532EB",
    "city": "Terneuzen",
    "website": "https://www.orthocenter.nl/onze-orthodontiepraktijken/terneuzen/",
    "phone": "+31 115 615 300"
  },
  {
    "latitude": 51.9223142,
    "longitude": 6.0726475,
    "name": "Hoevers Orthopedische Schoentechniek",
    "street": "Ringbaan-Zuid",
    "house_number": "12",
    "postal_code": "6905DB",
    "city": "Zevenaar",
    "website": "https://www.hoeversschoentechniek.nl/",
    "phone": ""
  },
  {
    "latitude": 52.0209858,
    "longitude": 4.6971936,
    "name": "",
    "street": "Dreef",
    "house_number": "1",
    "postal_code": "2803HA",
    "city": "Gouda",
    "website": "",
    "phone": ""
  },
  {
    "latitude": 52.6559143,
    "longitude": 5.0651644,
    "name": "Veld Orthopedische Schoentechniek",
    "street": "Nieuwe Steen",
    "house_number": "32D",
    "postal_code": "1625HV",
    "city": "Hoorn",
    "website": "https://www.veldschoenen.nl/",
    "phone": "+31 229 236 357"
  },
  {
    "latitude": 51.9170368,
    "longitude": 4.3524497,
    "name": "Samenwerkende Tandartsen",
    "street": "Goudsesingel",
    "house_number": "21",
    "postal_code": "3135CA",
    "city": "Vlaardingen",
    "website": "https://www.samenwerkendetandartsen.nl/praktijken/vlaardingen",
    "phone": "+31 10 474 5964"
  },
  {
    "latitude": 51.7921828,
    "longitude": 4.6812964,
    "name": "Livit Orthopedie",
    "street": "Karel Lotsyweg",
    "house_number": "6",
    "postal_code": "3318AL",
    "city": "Dordrecht",
    "website": "",
    "phone": ""
  },
  {
    "latitude": 51.8703664,
    "longitude": 5.2877552,
    "name": "Orthodontie Meteren",
    "street": "Rijksstraatweg",
    "house_number": "49a",
    "postal_code": "4194SK",
    "city": "Meteren",
    "website": "",
    "phone": ""
  },
  {
    "latitude": 51.5444198,
    "longitude": 4.1465085,
    "name": "De Poorthove",
    "street": "Paasdijkstraat",
    "house_number": "2a",
    "postal_code": "4693BR",
    "city": "Poortvliet",
    "website": "https://www.svrz.nl/onze-locaties/locaties/locatie:de-poorthove",
    "phone": ""
  },
  {
    "latitude": 52.3567379,
    "longitude": 4.8833031,
    "name": "Orthodontie Museumplein",
    "street": "Teniersstraat",
    "house_number": "2-HS",
    "postal_code": "1071DX",
    "city": "Amsterdam",
    "website": "https://www.orthodontiemuseumplein.nl",
    "phone": "+31 20 72 35 222"
  },
  {
    "latitude": 52.0287529,
    "longitude": 5.1733025,
    "name": "",
    "street": "Pelmolen",
    "house_number": "2",
    "postal_code": "3994XZ",
    "city": "Houten",
    "website": "",
    "phone": ""
  },
  {
    "latitude": 52.3649279,
    "longitude": 5.174156,
    "name": "Stichting Orthomoleculaire Educatie",
    "street": "",
    "house_number": "",
    "postal_code": "",
    "city": "",
    "website": "",
    "phone": ""
  },
  {
    "latitude": 50.9155214,
    "longitude": 5.9262956,
    "name": "Tandtechniek Beernaert",
    "street": "Pius XII-plein",
    "house_number": "10A",
    "postal_code": "6433CZ",
    "city": "Hoensbroek",
    "website": "",
    "phone": ""
  },
  {
    "latitude": 51.661507,
    "longitude": 5.031184,
    "name": "Stef's Praktijk voor Orthopedagogiek",
    "street": "Hoofdstraat",
    "house_number": "72",
    "postal_code": "5171DE",
    "city": "Kaatsheuvel",
    "website": "https://praktijkvanstef.nl/",
    "phone": "+31 6 11415958"
  },
  {
    "latitude": 50.8815214,
    "longitude": 5.978584,
    "name": "GERA Orthopedische Schoentechniek BV",
    "street": "Benzenraderweg",
    "house_number": "42",
    "postal_code": "6411EE",
    "city": "Heerlen",
    "website": "",
    "phone": ""
  },
  {
    "latitude": 51.5594806,
    "longitude": 5.0505492,
    "name": "Happy Dental & Ortho",
    "street": "Professor Gimbr\u00e8relaan",
    "house_number": "130",
    "postal_code": "5037EN",
    "city": "Tilburg",
    "website": "https://happydental.nl/nl/home-nl/",
    "phone": ""
  },
  {
    "latitude": 51.5537289,
    "longitude": 5.0905005,
    "name": "Adams Orthopedische Schoentechnieken",
    "street": "Piusstraat",
    "house_number": "14",
    "postal_code": "5038WS",
    "city": "Tilburg",
    "website": "https://www.adamsorthopedie.com/",
    "phone": ""
  },
  {
    "latitude": 51.6374531,
    "longitude": 4.8596722,
    "name": "Livit Orthopedie",
    "street": "Van Oldeneellaan",
    "house_number": "30",
    "postal_code": "4902ZC",
    "city": "Oosterhout",
    "website": "https://www.livit.nl/locaties/orthopedie-oosterhout-vanoldenneellaan/",
    "phone": ""
  },
  {
    "latitude": 51.6478829,
    "longitude": 4.8705218,
    "name": "Livit Orthopedie",
    "street": "Pasteurlaan",
    "house_number": "9",
    "postal_code": "4901DH",
    "city": "Oosterhout",
    "website": "https://www.livit.nl/locaties/orthopedie-oosterhout-pasteurlaan/",
    "phone": ""
  },
  {
    "latitude": 52.3348737,
    "longitude": 5.6130017,
    "name": "Orthoped. dagcentr. De Schutse",
    "street": "Beneluxlaan",
    "house_number": "1",
    "postal_code": "3844AK",
    "city": "Harderwijk",
    "website": "",
    "phone": ""
  },
  {
    "latitude": 52.6613444,
    "longitude": 4.8292387,
    "name": "TCN",
    "street": "Middenweg",
    "house_number": "51",
    "postal_code": "1703RB",
    "city": "Heerhugowaard",
    "website": "https://tcn.nl/tandarts-heerhugowaard/",
    "phone": "+31 72 571 5922"
  },
  {
    "latitude": 52.3202124,
    "longitude": 4.9816349,
    "name": "Heukels Orthomanuele Diergeneeskunde",
    "street": "Ar\u00e8npalmstraat",
    "house_number": "7",
    "postal_code": "1104DB",
    "city": "Amsterdam",
    "website": "https://orthomanueeldierenarts.nl/",
    "phone": "+31 20 211 79 49"
  },
  {
    "latitude": 52.504016,
    "longitude": 4.9582394,
    "name": "Top Ortho",
    "street": "Slenkstraat",
    "house_number": "68",
    "postal_code": "1441MS",
    "city": "Purmerend",
    "website": "https://www.toportho.nl/praktijken/toportho-purmerend/",
    "phone": "+31 299 424 800"
  },
  {
    "latitude": 52.5006454,
    "longitude": 6.0851133,
    "name": "Orthodontiepraktijk Al dente",
    "street": "Burgemeester van Walsumlaan",
    "house_number": "5",
    "postal_code": "8017CC",
    "city": "Zwolle",
    "website": "https://www.al-dente.nl/",
    "phone": ""
  },
  {
    "latitude": 52.2153795,
    "longitude": 5.1642842,
    "name": "Meijer Orthopedie",
    "street": "Gijsbrecht van Amstelstraat",
    "house_number": "258",
    "postal_code": "1215CR",
    "city": "Hilversum",
    "website": "https://www.meijerorthopedie.nl/meijer-orthopedie-hilversum/",
    "phone": "+31 35 624 3001"
  },
  {
    "latitude": 52.1524839,
    "longitude": 4.4999604,
    "name": "Orthocenter Leiden",
    "street": "De Laat de Kanterstraat",
    "house_number": "7",
    "postal_code": "2313JS",
    "city": "Leiden",
    "website": "https://www.orthocenter.nl/onze-orthodontiepraktijken/leiden/",
    "phone": ""
  },
  {
    "latitude": 52.665562,
    "longitude": 4.7660685,
    "name": "Orthocenter Alkmaar Daalmeer",
    "street": "Johanna Naberstraat",
    "house_number": "43A",
    "postal_code": "1827LB",
    "city": "Alkmaar",
    "website": "https://www.orthocenter.nl/onze-orthodontiepraktijken/alkmaar-daalmeer/",
    "phone": "+31 299 756 371"
  },
  {
    "latitude": 52.4909241,
    "longitude": 4.6613454,
    "name": "Paulus Ekelschot Orthopedie",
    "street": "Heemskerkerweg",
    "house_number": "85",
    "postal_code": "1945TC",
    "city": "Beverwijk",
    "website": "",
    "phone": ""
  },
  {
    "latitude": 51.4970948,
    "longitude": 3.619087,
    "name": "Orthocenter",
    "street": "Loskade",
    "house_number": "29",
    "postal_code": "4331HW",
    "city": "Middelburg",
    "website": "https://www.orthocenter.nl/",
    "phone": "+31 118 615 134"
  },
  {
    "latitude": 52.372653,
    "longitude": 4.9387547,
    "name": "Zeeburg Orthodontie",
    "street": "C. van Eesterenlaan",
    "house_number": "25-29",
    "postal_code": "1019JK",
    "city": "Amsterdam",
    "website": "http://zeeburgorthodontie.nl",
    "phone": ""
  },
  {
    "latitude": 51.6697062,
    "longitude": 5.6095477,
    "name": "Van den Brand Orthopedie",
    "street": "Hobostraat",
    "house_number": "1B",
    "postal_code": "5402CB",
    "city": "Uden",
    "website": "https://www.paulvandenbrand.nl/",
    "phone": ""
  },
  {
    "latitude": 52.1256152,
    "longitude": 5.0862706,
    "name": "Schrijver Orthopedie",
    "street": "Oregondreef",
    "house_number": "7",
    "postal_code": "3565BE",
    "city": "Utrecht",
    "website": "https://www.schrijverorthopedie.nl",
    "phone": "+31 30 262 2727"
  },
  {
    "latitude": 52.1091364,
    "longitude": 5.0922327,
    "name": "Eslin Orthopedie",
    "street": "Johannes Gerobulusstraat",
    "house_number": "10",
    "postal_code": "3553KA",
    "city": "Utrecht",
    "website": "https://www.eslinorthopedie.nl/",
    "phone": "+31 30 242 2700"
  },
  {
    "latitude": 53.2154798,
    "longitude": 5.7911188,
    "name": "Fries Tandtechnisch Laboratorium",
    "street": "Hooidam",
    "house_number": "3",
    "postal_code": "8918GK",
    "city": "Leeuwarden",
    "website": "https://excent.eu/lab-information.htm?LabId=20",
    "phone": ""
  },
  {
    "latitude": 52.8996594,
    "longitude": 7.0006017,
    "name": "EXPLORA Instituut voor Psychologie en Orthopedagogiek",
    "street": "",
    "house_number": "",
    "postal_code": "",
    "city": "",
    "website": "http://www.explora.nu/",
    "phone": "+31 6 54967325"
  },
  {
    "latitude": 51.5941983,
    "longitude": 4.8234073,
    "name": "Jolles Orthopaedische Expertise",
    "street": "Takkebijsters",
    "house_number": "5B",
    "postal_code": "4817BL",
    "city": "Breda",
    "website": "",
    "phone": "+31 6 51249807"
  },
  {
    "latitude": 52.0145513,
    "longitude": 4.3756211,
    "name": "Orthopedium",
    "street": "",
    "house_number": "",
    "postal_code": "",
    "city": "",
    "website": "",
    "phone": ""
  },
  {
    "latitude": 52.0794704,
    "longitude": 4.3091906,
    "name": "Orthodontistenpraktijk Den Haag",
    "street": "",
    "house_number": "",
    "postal_code": "",
    "city": "",
    "website": "",
    "phone": ""
  },
  {
    "latitude": 12.5420757,
    "longitude": -70.0194073,
    "name": "Orthodontics",
    "street": "",
    "house_number": "",
    "postal_code": "",
    "city": "",
    "website": "",
    "phone": ""
  },
  {
    "latitude": 53.2139516,
    "longitude": 6.5623693,
    "name": "Orthodontiepraktijk Hg Buiteveld",
    "street": "",
    "house_number": "",
    "postal_code": "",
    "city": "",
    "website": "",
    "phone": ""
  },
  {
    "latitude": 52.5091532,
    "longitude": 4.6708244,
    "name": "Orthodontiepraktijk Heemskerk",
    "street": "Maerten van Heemskerckstraat",
    "house_number": "19",
    "postal_code": "1961EB",
    "city": "Heemskerk",
    "website": "",
    "phone": ""
  },
  {
    "latitude": 52.2896841,
    "longitude": 4.8426374,
    "name": "Schiedon Orthopedisch Schoentechniek",
    "street": "Bovenkerkerweg",
    "house_number": "43",
    "postal_code": "1185XA",
    "city": "Amstelveen",
    "website": "",
    "phone": ""
  },
  {
    "latitude": 52.1489645,
    "longitude": 5.3786508,
    "name": "Orthodontie Amersfoort",
    "street": "Charlotte de Bourbonlaan",
    "house_number": "2",
    "postal_code": "3818DJ",
    "city": "Amersfoort",
    "website": "https://orthodontie-amersfoort.nl/",
    "phone": ""
  },
  {
    "latitude": 52.0053972,
    "longitude": 6.023654,
    "name": "Firma Hoevers Orthopedische Schoentechniek",
    "street": "Haverweg",
    "house_number": "55j",
    "postal_code": "6991BR",
    "city": "Rheden",
    "website": "https://www.hoeversschoentechniek.nl",
    "phone": "+31 26 495 5537"
  },
  {
    "latitude": 52.0790975,
    "longitude": 4.2707938,
    "name": "Orthomedix",
    "street": "",
    "house_number": "",
    "postal_code": "",
    "city": "",
    "website": "",
    "phone": ""
  },
  {
    "latitude": 52.0794935,
    "longitude": 4.2705219,
    "name": "Orthomedix",
    "street": "",
    "house_number": "",
    "postal_code": "",
    "city": "",
    "website": "",
    "phone": ""
  },
  {
    "latitude": 52.0612607,
    "longitude": 4.3115473,
    "name": "Orthodontiepraktijk Laakkwartier",
    "street": "",
    "house_number": "",
    "postal_code": "",
    "city": "",
    "website": "",
    "phone": ""
  },
  {
    "latitude": 53.1056868,
    "longitude": 6.8857703,
    "name": "OrthoNoord",
    "street": "Parallelweg",
    "house_number": "27",
    "postal_code": "9641KG",
    "city": "Veendam",
    "website": "https://www.orthonoord.com/",
    "phone": ""
  },
  {
    "latitude": 51.4997876,
    "longitude": 3.8990157,
    "name": "Orthocenter",
    "street": "van Dusseldorpstraat",
    "house_number": "34",
    "postal_code": "4461LV",
    "city": "Goes",
    "website": "https://www.orthocenter.nl/vestiging/orthocenter/goes/",
    "phone": "+31 113 252 056"
  },
  {
    "latitude": 52.6544215,
    "longitude": 4.7585515,
    "name": "Orthocenter De Mare",
    "street": "Europaboulevard",
    "house_number": "2B",
    "postal_code": "1825SB",
    "city": "Alkmaar",
    "website": "",
    "phone": ""
  },
  {
    "latitude": 12.5377274,
    "longitude": -70.0312443,
    "name": "Aruba Orthodontic Clinic",
    "street": "Ponton",
    "house_number": "65",
    "postal_code": "",
    "city": "",
    "website": "",
    "phone": ""
  },
  {
    "latitude": 52.0409822,
    "longitude": 4.3601631,
    "name": "VitOrtho BV",
    "street": "Laan van Waalhaven",
    "house_number": "323",
    "postal_code": "2497GL",
    "city": "'s-Gravenhage",
    "website": "https://www.vitortho.nl",
    "phone": "+31 70 301 0703"
  },
  {
    "latitude": 52.0818309,
    "longitude": 5.059391,
    "name": "Kliniek De Meern",
    "street": "Leidse Rijn",
    "house_number": "27",
    "postal_code": "3454PZ",
    "city": "De Meern",
    "website": "https://kliniekdemeern.com/",
    "phone": "+31 30 666 3332"
  },
  {
    "latitude": 12.5182433,
    "longitude": -70.0271132,
    "name": "A. Kawaiah Orthodontic",
    "street": "",
    "house_number": "",
    "postal_code": "",
    "city": "",
    "website": "",
    "phone": ""
  },
  {
    "latitude": 51.7429192,
    "longitude": 4.5546273,
    "name": "Orthopedagogische Maatschap Strijen",
    "street": "Molenstraat",
    "house_number": "19c",
    "postal_code": "3291EE",
    "city": "Strijen",
    "website": "",
    "phone": ""
  },
  {
    "latitude": 51.8762343,
    "longitude": 6.2453976,
    "name": "Molenpoorthof",
    "street": "",
    "house_number": "",
    "postal_code": "",
    "city": "",
    "website": "https://www.molenpoorthof.nu/",
    "phone": ""
  },
  {
    "latitude": 52.1366599,
    "longitude": 5.4277685,
    "name": "Ortholuna",
    "street": "De Biezenkamp",
    "house_number": "4g",
    "postal_code": "3831JA",
    "city": "Leusden",
    "website": "https://ortholuna.nl",
    "phone": "+31 33 4944296"
  },
  {
    "latitude": 52.2403104,
    "longitude": 4.44531,
    "name": "Ortho Center Noordwijk",
    "street": "",
    "house_number": "",
    "postal_code": "",
    "city": "",
    "website": "",
    "phone": ""
  },
  {
    "latitude": 52.0394583,
    "longitude": 5.5561649,
    "name": "Heuvel Orthopedische Schoentechniek",
    "street": "Plesmanstraat",
    "house_number": "66",
    "postal_code": "3905KZ",
    "city": "Veenendaal",
    "website": "https://www.heuvel-schoentechniek.nl",
    "phone": ""
  },
  {
    "latitude": 52.0615412,
    "longitude": 4.3515577,
    "name": "Van Haersma Buma Orthopedagogiek",
    "street": "Fonteynenburghlaan",
    "house_number": "5C",
    "postal_code": "2275CX",
    "city": "Voorburg",
    "website": "",
    "phone": ""
  },
  {
    "latitude": 52.0614741,
    "longitude": 4.3516664,
    "name": "Westland Orthopedie - Van Dalen Voet & Schoencentrum",
    "street": "Fonteynenburghlaan",
    "house_number": "5C",
    "postal_code": "2275CX",
    "city": "Voorburg",
    "website": "",
    "phone": ""
  },
  {
    "latitude": 52.0684205,
    "longitude": 4.5001212,
    "name": "Reinier Haga Orthopedisch Centrum",
    "street": "Toneellaan",
    "house_number": "2",
    "postal_code": "2725NA",
    "city": "Zoetermeer",
    "website": "https://rhoc.nl/",
    "phone": ""
  },
  {
    "latitude": 52.167177,
    "longitude": 4.4767601,
    "name": "Poli heelkunde, orthopedie en gipskamer",
    "street": "Hippocratespad",
    "house_number": "19",
    "postal_code": "2333ZD",
    "city": "Leiden",
    "website": "",
    "phone": ""
  },
  {
    "latitude": 53.2238792,
    "longitude": 6.5752882,
    "name": "Afd. Orthodontie UMCG",
    "street": "",
    "house_number": "",
    "postal_code": "",
    "city": "",
    "website": "",
    "phone": ""
  },
  {
    "latitude": 52.146426,
    "longitude": 4.4898718,
    "name": "Leidse Orthodontist",
    "street": "Perzikweg",
    "house_number": "166",
    "postal_code": "2321DG",
    "city": "Leiden",
    "website": "https://leidse-orthodontist.nl",
    "phone": ""
  },
  {
    "latitude": 52.0675524,
    "longitude": 4.3527468,
    "name": "Hawk Orthodontie",
    "street": "Maanweg",
    "house_number": "168",
    "postal_code": "2516AB",
    "city": "'s-Gravenhage",
    "website": "",
    "phone": ""
  },
  {
    "latitude": 51.5258167,
    "longitude": 5.0499565,
    "name": "H. Cools Tandprothetiek",
    "street": "",
    "house_number": "",
    "postal_code": "",
    "city": "",
    "website": "",
    "phone": ""
  },
  {
    "latitude": 51.88174,
    "longitude": 5.8458716,
    "name": "Orthodontiepraktijk Lent",
    "street": "Carbatinastraat",
    "house_number": "5",
    "postal_code": "6515GM",
    "city": "Nijmegen",
    "website": "https://ortho-lent.nl/",
    "phone": "+31 24 203 6660"
  },
  {
    "latitude": 52.020536,
    "longitude": 4.703484,
    "name": "TopOrtho Gouda",
    "street": "",
    "house_number": "",
    "postal_code": "",
    "city": "",
    "website": "",
    "phone": ""
  },
  {
    "latitude": 50.8543056,
    "longitude": 5.6916442,
    "name": "Porthoshof",
    "street": "",
    "house_number": "",
    "postal_code": "",
    "city": "",
    "website": "",
    "phone": ""
  },
  {
    "latitude": 52.6477025,
    "longitude": 5.0410136,
    "name": "Bracetime Orthodontist",
    "street": "Blauwe Berg",
    "house_number": "9A",
    "postal_code": "1625NT",
    "city": "Hoorn",
    "website": "https://www.bracetimehoorn.nl",
    "phone": "+31 229 304 700"
  },
  {
    "latitude": 52.107707,
    "longitude": 5.0119759,
    "name": "Orthodontiepraktijk Leidsche Rijn",
    "street": "Nieuwe Vaart",
    "house_number": "3",
    "postal_code": "3451AH",
    "city": "Vleuten",
    "website": "https://www.oplr.nl/",
    "phone": ""
  },
  {
    "latitude": 52.337239,
    "longitude": 4.9676544,
    "name": "Orthodontiepraktijk Diemen",
    "street": "",
    "house_number": "",
    "postal_code": "",
    "city": "",
    "website": "https://www.ortho-diemen.nl/",
    "phone": "+31 20 600 0046"
  },
  {
    "latitude": 51.736721,
    "longitude": 5.3579638,
    "name": "Merel Kooning Praktijk voor Tandheelkunde & Orthodontie",
    "street": "Het Frontier",
    "house_number": "195",
    "postal_code": "5245EA",
    "city": "Rosmalen",
    "website": "https://praktijkmerelkooning.nl/",
    "phone": "+31 73 5212407"
  },
  {
    "latitude": 51.2872497,
    "longitude": 4.0510781,
    "name": "Orthocenter",
    "street": "",
    "house_number": "",
    "postal_code": "",
    "city": "",
    "website": "https://www.orthocenter.nl/onze-orthodontiepraktijken/hulst/",
    "phone": "+31 88 123 7907"
  },
  {
    "latitude": 51.9534559,
    "longitude": 4.5586838,
    "name": "Porthos",
    "street": "George Hintzenweg",
    "house_number": "89",
    "postal_code": "3068AX",
    "city": "Rotterdam",
    "website": "https://www.porthosco2.nl/",
    "phone": ""
  },
  {
    "latitude": 52.688792,
    "longitude": 4.7057439,
    "name": "Praktijk voor Orthopedagogiek Oog voor Ontwikkeling",
    "street": "",
    "house_number": "",
    "postal_code": "",
    "city": "",
    "website": "https://www.oogvoorontwikkeling.nl/",
    "phone": ""
  },
  {
    "latitude": 53.3286562,
    "longitude": 6.9010665,
    "name": "Ortho Eemsmond",
    "street": "",
    "house_number": "",
    "postal_code": "",
    "city": "",
    "website": "https://orthoeemsmond.nl/",
    "phone": ""
  },
  {
    "latitude": 52.070084,
    "longitude": 4.2757841,
    "name": "Orthomedix",
    "street": "Valkenboslaan",
    "house_number": "328",
    "postal_code": "2563ED",
    "city": "'s-Gravenhage",
    "website": "https://orthomedix.nl",
    "phone": "+31 70 3020037;+31 6 30807389"
  },
  {
    "latitude": 52.1433522,
    "longitude": 4.3947208,
    "name": "Sanders Mello",
    "street": "",
    "house_number": "",
    "postal_code": "",
    "city": "",
    "website": "",
    "phone": ""
  },
  {
    "latitude": 52.3202259,
    "longitude": 4.9655846,
    "name": "Tandartspraktijk Zuidoost",
    "street": "",
    "house_number": "",
    "postal_code": "",
    "city": "",
    "website": "https://www.tandartspraktijk-zuidoost.nl/",
    "phone": "+31 20 690 6031"
  },
  {
    "latitude": 52.4416095,
    "longitude": 6.5925941,
    "name": "Martijn Jansen Sporthorses",
    "street": "Nonkeswijk",
    "house_number": "7",
    "postal_code": "7687AZ",
    "city": "Daarlerveen",
    "website": "",
    "phone": ""
  },
  {
    "latitude": 52.2633995,
    "longitude": 6.7706654,
    "name": "OCON Orthopedische kliniek",
    "street": "Geerdinksweg",
    "house_number": "141",
    "postal_code": "7555DL",
    "city": "Hengelo",
    "website": "https://www.ocon.nl",
    "phone": ""
  },
  {
    "latitude": 53.1722125,
    "longitude": 6.6137964,
    "name": "Poorthofsweg",
    "street": "",
    "house_number": "",
    "postal_code": "",
    "city": "",
    "website": "",
    "phone": ""
  },
  {
    "latitude": 52.7474885,
    "longitude": 6.1487297,
    "name": "Gorthoek",
    "street": "",
    "house_number": "",
    "postal_code": "",
    "city": "",
    "website": "",
    "phone": ""
  },
  {
    "latitude": 52.7449673,
    "longitude": 6.1457498,
    "name": "Gorthoek",
    "street": "",
    "house_number": "",
    "postal_code": "",
    "city": "",
    "website": "",
    "phone": ""
  },
  {
    "latitude": 53.2424064,
    "longitude": 6.1984743,
    "name": "De Poorthoek",
    "street": "",
    "house_number": "",
    "postal_code": "",
    "city": "",
    "website": "",
    "phone": ""
  },
  {
    "latitude": 53.2422231,
    "longitude": 6.2012998,
    "name": "De Poorthoek",
    "street": "",
    "house_number": "",
    "postal_code": "",
    "city": "",
    "website": "",
    "phone": ""
  },
  {
    "latitude": 53.2415909,
    "longitude": 6.1999783,
    "name": "De Poorthoek",
    "street": "",
    "house_number": "",
    "postal_code": "",
    "city": "",
    "website": "",
    "phone": ""
  },
  {
    "latitude": 52.9945127,
    "longitude": 6.2999234,
    "name": "Poorthof",
    "street": "",
    "house_number": "",
    "postal_code": "",
    "city": "",
    "website": "",
    "phone": ""
  },
  {
    "latitude": 53.3038609,
    "longitude": 6.2736821,
    "name": "Poorthoek",
    "street": "",
    "house_number": "",
    "postal_code": "",
    "city": "",
    "website": "",
    "phone": ""
  },
  {
    "latitude": 51.3513908,
    "longitude": 6.1587623,
    "name": "Hulsforthofweg",
    "street": "",
    "house_number": "",
    "postal_code": "",
    "city": "",
    "website": "",
    "phone": ""
  },
  {
    "latitude": 52.342556,
    "longitude": 6.0481514,
    "name": "Horthoekerweg",
    "street": "",
    "house_number": "",
    "postal_code": "",
    "city": "",
    "website": "",
    "phone": ""
  },
  {
    "latitude": 52.3374706,
    "longitude": 6.0435236,
    "name": "Horthoekerweg",
    "street": "",
    "house_number": "",
    "postal_code": "",
    "city": "",
    "website": "",
    "phone": ""
  },
  {
    "latitude": 52.3412587,
    "longitude": 6.04639,
    "name": "Horthoekerweg",
    "street": "",
    "house_number": "",
    "postal_code": "",
    "city": "",
    "website": "",
    "phone": ""
  },
  {
    "latitude": 52.3345051,
    "longitude": 6.0418781,
    "name": "Horthoekerweg",
    "street": "",
    "house_number": "",
    "postal_code": "",
    "city": "",
    "website": "",
    "phone": ""
  },
  {
    "latitude": 51.7676816,
    "longitude": 5.5221773,
    "name": "Boschpoorthof",
    "street": "",
    "house_number": "",
    "postal_code": "",
    "city": "",
    "website": "",
    "phone": ""
  },
  {
    "latitude": 51.7681046,
    "longitude": 5.5218007,
    "name": "Boschpoorthof",
    "street": "",
    "house_number": "",
    "postal_code": "",
    "city": "",
    "website": "",
    "phone": ""
  },
  {
    "latitude": 52.297044,
    "longitude": 4.9703278,
    "name": "Montfoorthof",
    "street": "",
    "house_number": "",
    "postal_code": "",
    "city": "",
    "website": "",
    "phone": ""
  },
  {
    "latitude": 50.8402229,
    "longitude": 5.6710524,
    "name": "Porthoslaan",
    "street": "",
    "house_number": "",
    "postal_code": "",
    "city": "",
    "website": "",
    "phone": ""
  },
  {
    "latitude": 50.8401963,
    "longitude": 5.6703132,
    "name": "Porthoslaan",
    "street": "",
    "house_number": "",
    "postal_code": "",
    "city": "",
    "website": "",
    "phone": ""
  },