[{"latitude": 52.8984861, "longitude": 5.5834914, "name": "Tandartspraktijk De Fryske Marren", "address": "Dubbelstraat 6", "city": "Balk", "postcode": "8561BC", "phone": "", "website": ""}, {"latitude": 51.2293076, "longitude": 6.0371825, "name": "Tandartsenpraktijk Groenen", "address": "Prinses Julianastraat 3", "city": "Swalmen", "postcode": "6071ES", "phone": "", "website": ""}, {"latitude": 52.2560476, "longitude": 6.1626181, "name": "Tandartsenpraktijk De Leeuwenbrug", "address": "", "city": "", "postcode": "", "phone": "", "website": ""}, {"latitude": 51.7633357, "longitude": 5.7855076, "name": "Tandartspraktijk Overasselt", "address": "Schoonenburgseweg 1", "city": "Overasselt", "postcode": "6611AA", "phone": "+31 24 622 2100", "website": "https://www.tandartspraktijkoverasselt.nl"}, {"latitude": 52.2015587, "longitude": 4.6318446, "name": "Dental Clinic", "address": "Noordeinde 27", "city": "Roelofarendsveen", "postcode": "2371CM", "phone": "", "website": ""}, {"latitude": 52.3916671, "longitude": 4.9092907, "name": "Dental Clinic", "address": "", "city": "", "postcode": "", "phone": "", "website": ""}, {"latitude": 52.7725368, "longitude": 5.1032973, "name": "Dental Clinic", "address": "", "city": "", "postcode": "", "phone": "", "website": ""}, {"latitude": 52.769368, "longitude": 5.1088955, "name": "Biesheuvel", "address": "", "city": "", "postcode": "", "phone": "", "website": ""}, {"latitude": 52.0050184, "longitude": 4.4441868, "name": "Tandarts Van Buuren", "address": "Floralaan 8", "city": "Pijnacker", "postcode": "2643HC", "phone": "", "website": ""}, {"latitude": 51.4730351, "longitude": 5.5671266, "name": "Tandartsenpraktijk Het Steenen Huys", "address": "", "city": "", "postcode": "", "phone": "", "website": ""}, {"latitude": 52.785735, "longitude": 6.137661, "name": "Tandzorg Steenwijk", "address": "", "city": "", "postcode": "", "phone": "", "website": ""}, {"latitude": 51.2017388, "longitude": 6.0111409, "name": "Dental Clinic", "address": "", "city": "", "postcode": "", "phone": "", "website": ""}, {"latitude": 51.9575826, "longitude": 5.5662121, "name": "Mondzorg Montoya", "address": "Frederik van de Paltshof 44", "city": "Rhenen", "postcode": "3911LB", "phone": "", "website": "https://www.mondzorgmontoya.nl/"}, {"latitude": 52.4099412, "longitude": 6.8991864, "name": "Ruinemans", "address": "Denekamperstraat 11B", "city": "Ootmarsum", "postcode": "7631AA", "phone": "", "website": ""}, {"latitude": 53.2081758, "longitude": 6.5092579, "name": "De Verbetering", "address": "", "city": "", "postcode": "", "phone": "", "website": ""}, {"latitude": 52.344825, "longitude": 4.8143411, "name": "Tandartspraktijk Luiksingel", "address": "", "city": "", "postcode": "", "phone": "", "website": ""}, {"latitude": 52.0468814, "longitude": 5.2350534, "name": "Dental Clinic", "address": "", "city": "", "postcode": "", "phone": "", "website": ""}, {"latitude": 53.0344297, "longitude": 5.6566089, "name": "Dental Clinic", "address": "", "city": "", "postcode": "", "phone": "", "website": ""}, {"latitude": 52.3167031, "longitude": 4.8631052, "name": "Aemstelgroep", "address": "Laan Rozenburg 28", "city": "Amstelveen", "postcode": "1181ER", "phone": "", "website": "https://www.aemstelgroep.nl/"}, {"latitude": 52.4560659, "longitude": 4.6027184, "name": "Tandprothetische Praktijk F.W. van der Linde", "address": "Planetenweg 52", "city": "IJmuiden", "postcode": "1973BH", "phone": "+31 255 520 035", "website": ""}, {"latitude": 52.4967435, "longitude": 5.4742966, "name": "Lassus Tandartsen Lelystad", "address": "Middendreef 273", "city": "Lelystad", "postcode": "8233GT", "phone": "+31 320 33 15 60", "website": "https://lassustandartsen.nl/"}, {"latitude": 52.1416114, "longitude": 4.4711374, "name": "De Korte Vliet", "address": "Brahmslaan 20", "city": "Leiden", "postcode": "2324AM", "phone": "+31 71 576 2925", "website": ""}, {"latitude": 52.3761939, "longitude": 4.6119097, "name": "Tandarts Niels Koning", "address": "Lorentzkade 300", "city": "Haarlem", "postcode": "2014CH", "phone": "+31 23 532 9002", "website": "https://koning.tandartsennet.nl/"}, {"latitude": 52.371991, "longitude": 4.6247059, "name": "Kammeijer", "address": "Wagenweg 78", "city": "Haarlem", "postcode": "2012NH", "phone": "", "website": ""}, {"latitude": 52.2626066, "longitude": 5.0455554, "name": "Dental Clinic", "address": "Overmeerseweg 13", "city": "Nederhorst den Berg", "postcode": "1394BC", "phone": "", "website": ""}, {"latitude": 53.2257081, "longitude": 6.5296755, "name": "Dijkstra Tandheelkunde", "address": "Siersteenlaan 428-5", "city": "Groningen", "postcode": "9743ES", "phone": "", "website": ""}, {"latitude": 51.8349422, "longitude": 4.9914414, "name": "Kuypers/Mol", "address": "", "city": "", "postcode": "", "phone": "", "website": ""}, {"latitude": 52.3506608, "longitude": 4.9038399, "name": "Tandartspraktijk TTH VAN WOU", "address": "", "city": "", "postcode": "", "phone": "", "website": ""}, {"latitude": 53.3379308, "longitude": 6.5284318, "name": "A.F. Bruining-Gelderblom", "address": "Sien Jensemalaan 37", "city": "Winsum", "postcode": "9951NE", "phone": "+31 595 441 740", "website": ""}, {"latitude": 51.989095, "longitude": 5.8402588, "name": "Dental Clinic", "address": "Generaal Urquhartlaan 18", "city": "Oosterbeek", "postcode": "6861GG", "phone": "", "website": ""}, {"latitude": 53.3631438, "longitude": 6.5138529, "name": "Tandartspraktijk Baflo", "address": "Kruisstraat 2", "city": "Baflo", "postcode": "9953PL", "phone": "+31 595 422 723", "website": "https://www.tandartsperdok.nl"}, {"latitude": 51.4133303, "longitude": 5.4157075, "name": "Meermond", "address": "Provincialeweg 49", "city": "Veldhoven", "postcode": "5503HB", "phone": "", "website": "https://www.meermond.nl/"}, {"latitude": 52.257176, "longitude": 5.605124, "name": "Wentsel de groot", "address": "", "city": "", "postcode": "", "phone": "", "website": ""}, {"latitude": 52.0871442, "longitude": 5.2477609, "name": "tandarts Alderliesten", "address": "", "city": "", "postcode": "", "phone": "", "website": "https://www.tandarts-alderliesten.nl/"}, {"latitude": 51.8368408, "longitude": 4.9605475, "name": "Tand en Zorg", "address": "Schoutstraat 27", "city": "Gorinchem", "postcode": "4204BB", "phone": "", "website": ""}, {"latitude": 51.906627, "longitude": 4.4978706, "name": "TopDent", "address": "", "city": "", "postcode": "", "phone": "", "website": ""}, {"latitude": 51.0641521, "longitude": 5.8547545, "name": "Dental Clinic", "address": "", "city": "", "postcode": "", "phone": "", "website": ""}, {"latitude": 52.9452374, "longitude": 6.4450157, "name": "Tandartspraktijk Klijntunte J P C", "address": "De Sluiskampen 38", "city": "Smilde", "postcode": "", "phone": "+31 592 413 488", "website": ""}, {"latitude": 51.8747788, "longitude": 4.5247949, "name": "Tandartspraktijk DanteTanden", "address": "Dantestraat 470", "city": "Rotterdam", "postcode": "3076KV", "phone": "+31 10 820 8910", "website": "https://www.dantetanden.nl"}, {"latitude": 52.3589805, "longitude": 4.9256826, "name": "Dental Care East & West", "address": "Linnaeusstraat 28", "city": "Amsterdam", "postcode": "1092CK", "phone": "", "website": ""}, {"latitude": 51.7545411, "longitude": 5.2592377, "name": "Dental Clinic", "address": "", "city": "", "postcode": "", "phone": "", "website": ""}, {"latitude": 52.353947, "longitude": 4.8662314, "name": "Tandartspraktijk Liem en Oei", "address": "Koninginneweg 79H", "city": "Amsterdam", "postcode": "1075CJ", "phone": "+31 20 618 7242", "website": "https://liem-oei.tandartsennet.nl/"}, {"latitude": 52.1215112, "longitude": 4.4963709, "name": "Mondzorg Zoeterwoude-Dorp", "address": "Dorpsstraat 12", "city": "Zoeterwoude", "postcode": "2381EL", "phone": "", "website": ""}, {"latitude": 52.0398526, "longitude": 4.3675406, "name": "Ypenburgse Tandartsenpraktijk", "address": "Plesmanlaan 168", "city": "'s-Gravenhage", "postcode": "2497CC", "phone": "", "website": "https://www.ypenburgsetandartsenpraktijk.nl"}, {"latitude": 51.8237297, "longitude": 4.7844031, "name": "tandheelkundig centrum Carabelli", "address": "", "city": "", "postcode": "", "phone": "", "website": "https://www.carabelli.nl/"}, {"latitude": 52.1214977, "longitude": 4.4470792, "name": "Tandartspraktijk De Lindehoeve", "address": "", "city": "", "postcode": "", "phone": "", "website": "https://gezondheidscentrumdelindehoeve.nl"}, {"latitude": 52.1761549, "longitude": 4.9952898, "name": "Mondzorgkliniek Stichtse Vecht", "address": "", "city": "", "postcode": "", "phone": "", "website": ""}, {"latitude": 50.9415566, "longitude": 5.7921637, "name": "Tandartspraktijk Bongaerts", "address": "", "city": "", "postcode": "", "phone": "", "website": ""}, {"latitude": 52.2568715, "longitude": 6.1654247, "name": "4dental", "address": "Brinkgreverweg 52", "city": "Deventer", "postcode": "7413AD", "phone": "", "website": ""}, {"latitude": 52.6645383, "longitude": 4.8269689, "name": "BraceTime", "address": "Middenwaard 100", "city": "Heerhugowaard", "postcode": "1703SH", "phone": "", "website": "https://bracetimeheerhugowaard.nl/"}, {"latitude": 50.9404029, "longitude": 5.7970951, "name": "Tandprothetisch centr. E. Houben", "address": "Van Sonsbeecklaan 3a", "city": "Beek", "postcode": "6191JL", "phone": "", "website": ""}, {"latitude": 52.3363176, "longitude": 4.8731326, "name": "Van de Veer Zuidas", "address": "Gustav Mahlerplein 116", "city": "Amsterdam", "postcode": "1082MA", "phone": "", "website": "https://www.tandartsenpraktijkvandeveer-zuidas.nl"}, {"latitude": 52.119497, "longitude": 5.4093676, "name": "Mulder", "address": "De Hank 2", "city": "Leusden", "postcode": "3832JL", "phone": "+31 33 433 3406", "website": "https://www.tandartspraktijkmulder.nl/"}, {"latitude": 52.1954238, "longitude": 5.4312137, "name": "Ortholuna orthodontie - Vathorst", "address": "Wouda 17", "city": "Amersfoort", "postcode": "3825MA", "phone": "+31 33 494 4296", "website": "https://ortholuna.nl/"}, {"latitude": 52.1308253, "longitude": 5.4290058, "name": "Dental Clinics", "address": "De Mulderij 1", "city": "Leusden", "postcode": "3831NV", "phone": "+31 33 790 0020", "website": "https://www.dentalclinics.nl/tandarts/leusden/"}, {"latitude": 52.1292239, "longitude": 5.4284397, "name": "OrthoCare", "address": "De Smidse 4", "city": "Leusden", "postcode": "3831NT", "phone": "", "website": ""}, {"latitude": 52.1364614, "longitude": 5.4278881, "name": "PTI de Biezenkamp", "address": "De Biezenkamp 112", "city": "Leusden", "postcode": "3831JA", "phone": "+31 33 4947384", "website": "https://ptidebiezenkamp.nl"}, {"latitude": 52.1366681, "longitude": 5.42899, "name": "Tandartspraktijk Leusden", "address": "De Biezenkamp 260", "city": "Leusden", "postcode": "3831JA", "phone": "+31 33 4946616", "website": "https://tandartspraktijkleusden.nl"}, {"latitude": 52.1366613, "longitude": 5.4280284, "name": "Mondzorg Leusden", "address": "De Biezenkamp 92", "city": "Leusden", "postcode": "3831JA", "phone": "+31 33 494 5010", "website": "https://www.mondzorgleusden.nl/"}, {"latitude": 52.0533314, "longitude": 4.2329071, "name": "Dental Clinic", "address": "", "city": "", "postcode": "", "phone": "", "website": ""}, {"latitude": 51.8004158, "longitude": 5.2423922, "name": "Dental Clinic", "address": "", "city": "", "postcode": "", "phone": "", "website": ""}, {"latitude": 53.1757304, "longitude": 6.9712917, "name": "Puur Mondzorg Scheemda", "address": "Stationsstraat 2", "city": "Scheemda", "postcode": "9679ED", "phone": "", "website": "https://puurmondzorg.nl/tandarts/scheemda/"}, {"latitude": 53.143762, "longitude": 7.0366455, "name": "Centrum voor Tandzorg", "address": "Venne 84", "city": "Winschoten", "postcode": "9671EV", "phone": "+31 597 425 182", "website": "https://www.centrumvoortandzorg.nl"}, {"latitude": 52.1693184, "longitude": 6.1425079, "name": "tandartspraktijk C. Valkenburg", "address": "Rijksstraatweg 104", "city": "Voorst", "postcode": "7383AW", "phone": "", "website": ""}, {"latitude": 52.3207585, "longitude": 4.8777209, "name": "Tandartspraktijk Laan van Kronenburg", "address": "Uilenstede 512 C", "city": "Amstelveen", "postcode": "1183DE", "phone": "", "website": "https://tandartskronenburg.nl/"}, {"latitude": 51.8223271, "longitude": 4.2513633, "name": "Tandartspraktijk G.P. de Vos", "address": "Burgemeester N.P. Kremerlaan 26", "city": "Zuidland", "postcode": "3214TD", "phone": "", "website": "https://gpdevos.com"}, {"latitude": 52.0027564, "longitude": 6.1267144, "name": "Tandartspraktijk Morssinkhof", "address": "Breedestraat 33", "city": "Doesburg", "postcode": "6983AC", "phone": "+31 313 474 214", "website": "http://www.tandartspraktijkmorssinkhof.nl/"}, {"latitude": 52.357061, "longitude": 4.7935603, "name": "Van de Veer", "address": "Tussen Meer 78-80", "city": "Amsterdam", "postcode": "1069DS", "phone": "+31 20 610 8384", "website": ""}, {"latitude": 51.5454257, "longitude": 5.1868154, "name": "Tandheelkundig centrum Moergestel", "address": "Raadhuisstraat 32E", "city": "Moergestel", "postcode": "5066AP", "phone": "+31 13 513 1948", "website": "https://tcmoergestel.nl/"}, {"latitude": 52.3564298, "longitude": 4.9277606, "name": "Kunstgebitten Aarts & Teeboom", "address": "Linnaeusstraat 211", "city": "Amsterdam", "postcode": "1093EP", "phone": "", "website": ""}, {"latitude": 51.9105155, "longitude": 4.4786001, "name": "Orthodontix", "address": "Gedempte Zalmhaven 999", "city": "Rotterdam", "postcode": "3011BT", "phone": "", "website": ""}, {"latitude": 52.3653479, "longitude": 4.8670162, "name": "Tandartsengroep Borgerstraat", "address": "Borgerstraat 52C", "city": "Amsterdam", "postcode": "1053PV", "phone": "", "website": "https://www.borgerstraat.nl"}, {"latitude": 51.6966221, "longitude": 5.3330124, "name": "Tandprothetischepraktijk Vos", "address": "", "city": "", "postcode": "", "phone": "", "website": ""}, {"latitude": 52.2989054, "longitude": 5.0433084, "name": "Tandheelkundig Centrum Weesp Vestiging Aetsveld", "address": "Mr.C.Kooimancentrum 15", "city": "Weesp", "postcode": "1383ED", "phone": "", "website": ""}, {"latitude": 52.4821901, "longitude": 6.1091989, "name": "Tandartsengroepspraktijk Vrijheid", "address": "Vrijheid 4", "city": "Zwolle", "postcode": "8014XW", "phone": "", "website": ""}, {"latitude": 52.903026, "longitude": 5.999067, "name": "Tandartspraktijk t olde wold", "address": "Heerenveenseweg 218", "city": "Oldeholtwolde", "postcode": "8477AC", "phone": "", "website": "https://www.oldewold.nl/"}, {"latitude": 52.017435, "longitude": 5.5567774, "name": "Tandartsenpraktijk Clevers", "address": "Nijverheidslaan 3F", "city": "Veenendaal", "postcode": "3903AL", "phone": "", "website": ""}, {"latitude": 52.5053074, "longitude": 6.095723, "name": "Praktijk voor Mondhygiene", "address": "Van Karnebeekstraat 111", "city": "Zwolle", "postcode": "8011JE", "phone": "", "website": "https://www.mondhygiene-assendorp.nl/"}, {"latitude": 52.503975, "longitude": 6.1045041, "name": "La Roi", "address": "Assendorperstraat 139", "city": "Zwolle", "postcode": "8012DK", "phone": "", "website": "https://www.tandartslaroi.nl/"}, {"latitude": 52.5084777, "longitude": 6.0974591, "name": "PPZ Parodontologie", "address": "Groot Wezenland 15", "city": "Zwolle", "postcode": "8011JV", "phone": "", "website": "https://paropraktijkzwolle.nl/"}, {"latitude": 52.5057448, "longitude": 6.0941793, "name": "Excellentia", "address": "Hertenstraat 25", "city": "Zwolle", "postcode": "8011GR", "phone": "", "website": "https://www.tandartspraktijkexcellentia.nl/"}, {"latitude": 52.5074791, "longitude": 6.0914245, "name": "Dental Clinics Zwolle", "address": "Stationsweg 5", "city": "Zwolle", "postcode": "8011CZ", "phone": "", "website": "https://www.dentalclinics.nl/tandarts/zwolle/"}, {"latitude": 52.5265695, "longitude": 6.081268, "name": "Atiq", "address": "Beethovenlaan 342", "city": "Zwolle", "postcode": "8031BW", "phone": "", "website": "https://tandarts-zwolle.nl/"}, {"latitude": 52.5267685, "longitude": 6.0867221, "name": "Tandartsenpraktijk Holtenbroek", "address": "Schubertstraat 74", "city": "Zwolle", "postcode": "8031ZE", "phone": "", "website": "https://tandartspraktijkholtenbroek.tandartsennet.nl/"}, {"latitude": 52.512815, "longitude": 6.0987198, "name": "van Assen", "address": "Kerkstraat 10", "city": "Zwolle", "postcode": "8011RT", "phone": "", "website": "https://www.kunstgebit-zwolle.nl/"}, {"latitude": 52.5145604, "longitude": 6.0984756, "name": "F.S.B. van de Werken", "address": "Thorbeckegracht 14", "city": "Zwolle", "postcode": "8011VL", "phone": "", "website": ""}, {"latitude": 52.5150879, "longitude": 6.0938436, "name": "Tandartsen Noordereiland", "address": "Assiesstraat 2", "city": "Zwolle", "postcode": "8011XT", "phone": "", "website": ""}, {"latitude": 52.5149294, "longitude": 6.1026288, "name": "Tandartspraktijk De Brink", "address": "Brink 18", "city": "Zwolle", "postcode": "8021AP", "phone": "", "website": ""}, {"latitude": 52.5167772, "longitude": 6.1009467, "name": "Mondhygi\u00ebne Praktijk Sarkisian", "address": "Braillestraat 15", "city": "Zwolle", "postcode": "8021CX", "phone": "", "website": "https://www.sarkisian.nl/"}, {"latitude": 52.515979, "longitude": 6.1048209, "name": "Wesselink Dental", "address": "Thomas a Kempisstraat 48", "city": "Zwolle", "postcode": "8021BD", "phone": "", "website": "https://wesselinkdental.nl/"}, {"latitude": 52.5274152, "longitude": 6.1032682, "name": "4Dental", "address": "Spui 325", "city": "Zwolle", "postcode": "8032VS", "phone": "", "website": "https://www.4dental.nl/zwolle/"}, {"latitude": 52.5302656, "longitude": 6.0995634, "name": "Boersma & Boersma", "address": "Rijnlaan 35", "city": "Zwolle", "postcode": "8032JZ", "phone": "", "website": "https://www.boersma-tandheelkunde.nl"}, {"latitude": 52.5301714, "longitude": 6.0999835, "name": "Mondzorg Rijnlaan", "address": "Rijnlaan 41", "city": "Zwolle", "postcode": "8032JZ", "phone": "+31 38 4217587", "website": "https://www.mondzorgrijnlaan.nl/"}, {"latitude": 52.5183392, "longitude": 6.0930135, "name": "Dede", "address": "Rembrandtlaan 4", "city": "Zwolle", "postcode": "8021DH", "phone": "", "website": "https://www.mondzorgpraktijkdede.nl/"}, {"latitude": 52.5190364, "longitude": 6.0928526, "name": "Klikgebit", "address": "Rembrandtlaan 6", "city": "Zwolle", "postcode": "8021DH", "phone": "", "website": "https://klikgebitnederland.nl/"}, {"latitude": 52.4373763, "longitude": 6.2339053, "name": "Veenstra", "address": "Dorpsstraat 41", "city": "Heino", "postcode": "8141AJ", "phone": "", "website": "https://www.tandartspraktijkveenstra.nl/"}, {"latitude": 52.4360904, "longitude": 6.2356778, "name": "Tandartspraktijk Heino", "address": "Marktstraat 11", "city": "Heino", "postcode": "8141GA", "phone": "", "website": ""}, {"latitude": 52.470363, "longitude": 6.0706511, "name": "Mondzorg Parkzicht", "address": "Nieuweweg 95", "city": "Hattem", "postcode": "8051EC", "phone": "", "website": ""}, {"latitude": 52.3826159, "longitude": 6.2606979, "name": "Tandartspratijk Elders", "address": "Kerspelweg 58", "city": "Raalte", "postcode": "8101GP", "phone": "", "website": ""}, {"latitude": 52.9421661, "longitude": 5.9441688, "name": "Tandarts Heij", "address": "Tolhuisweg 14", "city": "Heerenveen", "postcode": "8443DW", "phone": "", "website": "http://www.uwgebitonzezorg.nl/"}, {"latitude": 52.9641195, "longitude": 5.9148053, "name": "Praktijk voor Mondhygiene", "address": "Herenwal 121", "city": "Heerenveen", "postcode": "8441BD", "phone": "", "website": "https://www.praktijkmondhygieneheerenveen.com/"}, {"latitude": 52.1531919, "longitude": 4.5246677, "name": "De | Tandarts", "address": "", "city": "", "postcode": "", "phone": "", "website": ""}, {"latitude": 52.5214467, "longitude": 6.1083869, "name": "T.O.P.Z", "address": "Zerboltstraat 61B", "city": "Zwolle", "postcode": "8022RW", "phone": "", "website": "https://to-pz.nl/"}, {"latitude": 52.1029549, "longitude": 6.3105831, "name": "Mondzorg Vorden", "address": "Het Hoge 9", "city": "Vorden", "postcode": "7251XT", "phone": "", "website": "https://www.mondzorgvorden.nl/"}, {"latitude": 52.3796331, "longitude": 6.6769329, "name": "Tandarts Holthinrichs", "address": "Stins 4", "city": "Almelo", "postcode": "7608HD", "phone": "", "website": ""}, {"latitude": 51.9938066, "longitude": 4.476061, "name": "TMOrthodontie", "address": "Herenstraat 18", "city": "Berkel en Rodenrijs", "postcode": "2651CB", "phone": "", "website": "https://www.tmorthodontie.nl"}, {"latitude": 52.1108977, "longitude": 4.2917173, "name": "Dental Clinic Belgisch Park", "address": "Stevinstraat 176A", "city": "'s-Gravenhage", "postcode": "2587ET", "phone": "+31 70 767 0080", "website": "https://tkbp.nl/"}, {"latitude": 52.0952804, "longitude": 4.2781817, "name": "Tandheelkundig Centrum Altman", "address": "Prins Mauritsplein 23", "city": "'s-Gravenhage", "postcode": "2582ND", "phone": "", "website": ""}, {"latitude": 52.3354045, "longitude": 5.2160178, "name": "Tandartspraktijk De Waterval", "address": "Nieuwstraat", "city": "Almere", "postcode": "", "phone": "", "website": ""}, {"latitude": 51.99286, "longitude": 4.4780087, "name": "Tandprothetische Praktijk Berkelen Roderijs", "address": "Kerksingel 16", "city": "Berkel en Rodenrijs", "postcode": "2651CC", "phone": "+31 10 511 1700", "website": "https://www.avanhartevelt.nl/"}, {"latitude": 51.9987058, "longitude": 4.4834789, "name": "Kunstgebit Berkel", "address": "Krugerlaan 17", "city": "Berkel en Rodenrijs", "postcode": "2651GA", "phone": "", "website": "https://www.kunstgebitberkel.nl"}, {"latitude": 51.9910464, "longitude": 4.4701686, "name": "Tandartsenpraktijk Lansingerland", "address": "Ranonkelweg 1", "city": "Berkel en Rodenrijs", "postcode": "2651MX", "phone": "", "website": ""}, {"latitude": 51.9887228, "longitude": 4.4761006, "name": "Mondzorg Berkel", "address": "Berkelse Poort 45", "city": "Berkel en Rodenrijs", "postcode": "2651JX", "phone": "+31 10 519 6900", "website": "https://mondzorgberkel.nl/"}, {"latitude": 52.3342674, "longitude": 5.2280075, "name": "Achterwerf Tandartsen", "address": "Achterwerf", "city": "Almere", "postcode": "", "phone": "", "website": ""}, {"latitude": 51.9859337, "longitude": 4.3516164, "name": "Centrum voor Mondzorg", "address": "Victoriapad 1", "city": "Delft", "postcode": "2622JC", "phone": "+31 15 261 7103", "website": "https://www.mondzorgtanthof.nl"}, {"latitude": 51.9941678, "longitude": 4.351787, "name": "Tandartspraktijk Schouten", "address": "Hendrik Marsmanlaan 134", "city": "Delft", "postcode": "2624TM", "phone": "+31 15 256 1266", "website": "http://www.tandartspraktijkschouten.nl/"}, {"latitude": 51.9983382, "longitude": 4.3553495, "name": "Masa", "address": "Papsouwselaan 137C", "city": "Delft", "postcode": "2624AK", "phone": "+31 15 364 6121", "website": "https://www.tandartspraktijkmasa.nl"}, {"latitude": 52.0017897, "longitude": 4.3545015, "name": "Tandartspraktijk Poptahof", "address": "Papsouwselaan 1C", "city": "Delft", "postcode": "2624AE", "phone": "+31 15 257 4030", "website": ""}, {"latitude": 52.0102277, "longitude": 4.3285706, "name": "Tandartspraktijk Voordijkshoorn", "address": "Tuindersvaart 156A", "city": "Delft", "postcode": "2614SL", "phone": "+31 15 213 4275", "website": "https://www.tandartspraktijkvoordijkshoorn.nl/"}, {"latitude": 52.0096242, "longitude": 4.3715466, "name": "Tandartspraktijk de Oostpoort", "address": "Julianalaan 52", "city": "Delft", "postcode": "2628BJ", "phone": "", "website": ""}, {"latitude": 52.0041823, "longitude": 4.3517212, "name": "Orthocenter Delft", "address": "Van Saenredamstraat 1A", "city": "Delft", "postcode": "2613NS", "phone": "", "website": "https://www.orthocenter.nl"}, {"latitude": 52.0103086, "longitude": 4.347386, "name": "Dental Clinic", "address": "Adriaan Pauwstraat 86", "city": "Delft", "postcode": "2613DB", "phone": "+31 15 212 2268", "website": "https://www.detandartsengroep.nl/"}, {"latitude": 52.0169288, "longitude": 4.3529899, "name": "Orthospecialist", "address": "Koningsplein 10", "city": "Delft", "postcode": "2611XD", "phone": "+31 15 215 3434", "website": "https://www.orthospecialist.nl/delft/"}, {"latitude": 52.0420111, "longitude": 4.3698836, "name": "Tandartsenpraktijk Ypenburg Centrum", "address": "Steentijdsingel 61", "city": "'s-Gravenhage", "postcode": "2496SH", "phone": "", "website": "https://www.tandartsypenburgcentrum.nl/"}, {"latitude": 52.0408176, "longitude": 4.495729, "name": "Tandheelkundig Zorgcentrum Rokkeveen", "address": "Algengroen 1", "city": "Zoetermeer", "postcode": "2718GN", "phone": "", "website": ""}, {"latitude": 52.0401728, "longitude": 4.5013258, "name": "Denthuijse", "address": "Blauw-roodlaan 8", "city": "Zoetermeer", "postcode": "2718SJ", "phone": "", "website": ""}, {"latitude": 51.822221, "longitude": 4.2586477, "name": "Tandartsenpraktijk Bernisse", "address": "Breedstraat 20a", "city": "Zuidland", "postcode": "3214AC", "phone": "+31 181 620 800", "website": "https://www.tandartsenpraktijkbernisse.nl/"}, {"latitude": 52.0623005, "longitude": 4.516103, "name": "Praktijk voor mondhygi\u00ebne Zoetermeer", "address": "Gaardedreef 171", "city": "Zoetermeer", "postcode": "2723AZ", "phone": "", "website": ""}, {"latitude": 52.0622831, "longitude": 4.5161793, "name": "Dental Clinics Zoetermeer Seghwaert", "address": "Gaardedreef 177", "city": "Zoetermeer", "postcode": "2723AZ", "phone": "+31 79 341 1511", "website": "https://www.dentalclinics.nl/tandarts/zoetermeer-seghwaert/"}, {"latitude": 52.0758666, "longitude": 4.5286056, "name": "Tandartsencollectief", "address": "Dijkmanschans 2", "city": "Zoetermeer", "postcode": "2728GK", "phone": "", "website": ""}, {"latitude": 52.0633503, "longitude": 4.5315697, "name": "Oosterheem Dental", "address": "Willem Dreeslaan 269", "city": "Zoetermeer", "postcode": "2729NE", "phone": "", "website": ""}, {"latitude": 52.0566241, "longitude": 4.4679675, "name": "Mondzorgcentrum Meerzicht", "address": "Monnikenbos 1", "city": "Zoetermeer", "postcode": "2716GT", "phone": "", "website": "https://www.mondzorgmeerzicht.nl/"}, {"latitude": 52.0704731, "longitude": 4.4868039, "name": "Tandartspraktijk Bergmanstrook", "address": "Bergmanstrook 3", "city": "Zoetermeer", "postcode": "2726RP", "phone": "", "website": "https://www.tandartspraktijkbergmanstrook.nl"}, {"latitude": 52.0651914, "longitude": 4.4910549, "name": "Praktijk voor Orthodontie en Implantologie Zoetermeer", "address": "Coppeliaschouw 3", "city": "Zoetermeer", "postcode": "2726JK", "phone": "", "website": "https://www.orthozoetermeer.nl"}, {"latitude": 52.0676475, "longitude": 4.4771459, "name": "Tandarts Buytenwegh", "address": "Muzieklaan 3", "city": "Zoetermeer", "postcode": "2717CW", "phone": "", "website": "https://www.tandartsbuytenwegh.nl/"}, {"latitude": 52.0661634, "longitude": 4.4689213, "name": "Tandartspraktijk Beethovenrode", "address": "Beethovenrode 41", "city": "Zoetermeer", "postcode": "2717AP", "phone": "", "website": ""}, {"latitude": 52.0520732, "longitude": 4.4931299, "name": "Mw.C.L. Copius Peereboom", "address": "Tollensstraat 1G", "city": "Zoetermeer", "postcode": "2712EG", "phone": "", "website": ""}, {"latitude": 52.053992, "longitude": 4.5141921, "name": "Darwinkliniek Integrale Tandheelkunde", "address": "Darwinstraat 2", "city": "Zoetermeer", "postcode": "2722PX", "phone": "", "website": ""}, {"latitude": 52.0589085, "longitude": 4.486247, "name": "Tandartsenpraktijk Stadshart", "address": "Dublinstraat 32", "city": "Zoetermeer", "postcode": "2713HS", "phone": "", "website": "https://www.tp-stadshart.nl"}, {"latitude": 52.0568967, "longitude": 4.4964226, "name": "Mondzorg Fitdent", "address": "Leidsewallen 4", "city": "Zoetermeer", "postcode": "2712BW", "phone": "", "website": ""}, {"latitude": 52.0601805, "longitude": 4.4978384, "name": "Bordeaux", "address": "Bordeauxstraat 50", "city": "Zoetermeer", "postcode": "2711CJ", "phone": "+31 79 3432233", "website": "https://www.tandartspraktijkbordeaux.nl/"}, {"latitude": 52.0563204, "longitude": 4.4971918, "name": "Tandartspraktijk Westerhof", "address": "Dorpsstraat 76", "city": "Zoetermeer", "postcode": "2712AM", "phone": "", "website": ""}, {"latitude": 52.0640316, "longitude": 4.4043245, "name": "Tandartsenpraktijk Leidschenhof", "address": "Harri\u00ebt Freezerhof 4", "city": "'s-Gravenhage", "postcode": "2492JD", "phone": "", "website": "https://www.leidschenhof.nl/"}, {"latitude": 51.9184577, "longitude": 4.4759209, "name": "Karel Tandartsen", "address": "Karel Doormanstraat 455A", "city": "Rotterdam", "postcode": "3012GH", "phone": "", "website": ""}, {"latitude": 51.9303635, "longitude": 4.4603374, "name": "Tandartsenpraktijk Blijdorp", "address": "Dresselhuysstraat 5D", "city": "Rotterdam", "postcode": "3039ZH", "phone": "+31 10 466 0104", "website": "https://www.tandarts-blijdorp.nl/"}, {"latitude": 52.0049946, "longitude": 6.3590276, "name": "Tandarts B.L. van Norden", "address": "", "city": "", "postcode": "", "phone": "", "website": ""}, {"latitude": 52.0055704, "longitude": 6.3526013, "name": "Tandarts O.J. de Jong", "address": "Stationsplein 4", "city": "Zelhem", "postcode": "7021CN", "phone": "", "website": ""}, {"latitude": 52.0790663, "longitude": 5.1278896, "name": "Nieuwe Helden", "address": "Gansstraat 110", "city": "Utrecht", "postcode": "3582EL", "phone": "+31 30 259 94 85", "website": "https://kindertandartsutrecht.nl/"}, {"latitude": 52.0799745, "longitude": 5.1266759, "name": "Tandartspraktijk Jouw Mondzorg", "address": "Meerkoethof 48", "city": "Utrecht", "postcode": "3582DA", "phone": "", "website": ""}, {"latitude": 52.0806457, "longitude": 5.1250115, "name": "Helder Mondzorg", "address": "Gansstraat 16", "city": "Utrecht", "postcode": "3582EH", "phone": "+31 30 737 0590", "website": "https://heldermondzorg.nl/"}, {"latitude": 52.0050375, "longitude": 4.3913489, "name": "Tandarts Delfgauw", "address": "Gouden Rijderplein 8", "city": "Delfgauw", "postcode": "2645EX", "phone": "", "website": "https://mondzorgdelfgauw.nl/over-ons/"}, {"latitude": 52.7901193, "longitude": 6.8982874, "name": "Tandartsenpraktijk Stationsstraat", "address": "Stationsstraat 79", "city": "Emmen", "postcode": "7811GS", "phone": "+31 591 617611", "website": "https://www.praktijkstationsstraat.nl"}, {"latitude": 52.0520382, "longitude": 6.3086337, "name": "Tandartsenpraktijk Van der Torre", "address": "Raadhuisstraat 19", "city": "Hengelo (Gld)", "postcode": "7255BK", "phone": "+31 575 461 370", "website": "https://tandartsvdtorre.nl/"}, {"latitude": 52.7976888, "longitude": 6.8992793, "name": "Sensodent", "address": "Nijverheidsstraat 6", "city": "Emmen", "postcode": "7815HV", "phone": "", "website": ""}, {"latitude": 52.0043952, "longitude": 4.4427917, "name": "Tandartspraktijk Keijzershof", "address": "Hoefbladplein 3", "city": "Pijnacker", "postcode": "2643KD", "phone": "", "website": "https://www.tandartspraktijkkeijzershof.nl/"}, {"latitude": 52.7840434, "longitude": 6.9125137, "name": "Puur Mondzorg Emmen", "address": "Boermarkeweg 44D", "city": "Emmen", "postcode": "7824AA", "phone": "", "website": "https://puurmondzorg.nl/tandarts/emmen/"}, {"latitude": 52.1019896, "longitude": 5.0974847, "name": "TandArt Utrecht", "address": "Amsterdamsestraatweg 320C", "city": "Utrecht", "postcode": "3551CT", "phone": "+31 30 242 0230", "website": "https://www.tandartutrecht.nl/"}, {"latitude": 52.0420509, "longitude": 6.3114206, "name": "Donker Borghouts Tandartsenpraktijk", "address": "Winkelskamp 4", "city": "Hengelo (Gld)", "postcode": "7255PZ", "phone": "", "website": ""}, {"latitude": 52.7597857, "longitude": 6.881, "name": "Van Netten", "address": "Zuidlaarderbrink 8", "city": "Emmen", "postcode": "7812GE", "phone": "", "website": ""}, {"latitude": 52.0427183, "longitude": 4.3962016, "name": "Tandartspraktijk SubLiem", "address": "Ds. C. Spoorlaan 2a", "city": "Nootdorp", "postcode": "2631DC", "phone": "+31 15 310 8580", "website": "https://www.tandartspraktijksubliem.nl"}, {"latitude": 52.0446051, "longitude": 4.3977164, "name": "Dental Clinics Nootdorp", "address": "Meidoornlaan 2a", "city": "Nootdorp", "postcode": "2631GC", "phone": "", "website": ""}, {"latitude": 52.0448289, "longitude": 4.3982642, "name": "Tandarts M. Gastelaars", "address": "Olmendreef 3", "city": "Nootdorp", "postcode": "2631HH", "phone": "", "website": ""}, {"latitude": 52.0431329, "longitude": 4.3946573, "name": "EZ Praktijk voor Mondhygi\u00ebne", "address": "Dorpsstraat 33", "city": "Nootdorp", "postcode": "2631CR", "phone": "", "website": "https://www.ezpraktijk.nl"}, {"latitude": 52.0423234, "longitude": 4.3933129, "name": "Tandheelkundig centrum Nootdorp", "address": "Dorpsstraat 6", "city": "Nootdorp", "postcode": "2631CT", "phone": "+31 15 285 1000", "website": "https://tandarts-nootdorp.nl/"}, {"latitude": 52.1285998, "longitude": 5.5682962, "name": "Tandartsenpraktijk Vermeulen", "address": "Koolhovenstraat 13", "city": "Barneveld", "postcode": "3772MT", "phone": "", "website": ""}, {"latitude": 52.1298269, "longitude": 5.5693646, "name": "Tandartspraktijk Puntgaaf", "address": "Parmentierstraat 5", "city": "Barneveld", "postcode": "3772MS", "phone": "", "website": ""}, {"latitude": 52.1339867, "longitude": 5.5829923, "name": "Nguyen", "address": "Churchillstraat 52", "city": "Barneveld", "postcode": "3772KV", "phone": "+31 342 49 06 66", "website": "https://tandartsnguyen.nl/"}, {"latitude": 52.1279638, "longitude": 5.5685611, "name": "Tandartsenpraktijk Pronk", "address": "Koolhovenstraat 6", "city": "Barneveld", "postcode": "3772MT", "phone": "", "website": ""}, {"latitude": 52.7544872, "longitude": 6.8828982, "name": "Tandarts Engelbertink", "address": "Brinkenhalte 20", "city": "Emmen", "postcode": "7812HX", "phone": "+31 591 532 203", "website": ""}, {"latitude": 52.7507547, "longitude": 6.8886077, "name": "Dental Clinic", "address": "Valkenveld 120", "city": "Emmen", "postcode": "7827HG", "phone": "", "website": ""}, {"latitude": 52.5919185, "longitude": 6.0963854, "name": "Dental Clinics Hasselt", "address": "Telvorenstraat 5", "city": "Hasselt", "postcode": "8061CB", "phone": "+31 38 477 3338", "website": "https://www.dentalclinics.nl/tandarts/hasselt/"}, {"latitude": 52.696216, "longitude": 5.1749304, "name": "Tandartsen om de Noord", "address": "", "city": "", "postcode": "", "phone": "", "website": "https://tandartsenomdenoord.nl/"}, {"latitude": 52.1425339, "longitude": 5.3800095, "name": "Tandheelkunde Eemland", "address": "Leusderweg 192", "city": "Amersfoort", "postcode": "3817KE", "phone": "", "website": ""}, {"latitude": 52.1446397, "longitude": 5.3881606, "name": "Tandartspraktijk J.W. Hagen", "address": "Everard Meysterweg 37", "city": "Amersfoort", "postcode": "3817HA", "phone": "+31 33 461 3515", "website": ""}, {"latitude": 52.1520168, "longitude": 5.3860912, "name": "T.X. de Jong Tandzorg", "address": "Arnhemseweg 6", "city": "Amersfoort", "postcode": "3817CH", "phone": "+31 33 4613334", "website": "https://txdejong.nl"}, {"latitude": 52.1947536, "longitude": 6.3651946, "name": "Tandartsenpraktijk Laren", "address": "Holterweg 3j", "city": "Laren", "postcode": "7245AL", "phone": "", "website": ""}, {"latitude": 52.2006148, "longitude": 6.1989944, "name": "De Watersnip", "address": "Hoofdstraat 57", "city": "Gorssel", "postcode": "7213CR", "phone": "", "website": "https://dewatersnip.com/gorssel/"}, {"latitude": 52.1965178, "longitude": 6.1998585, "name": "Weijler en Weijler", "address": "Hoofdstraat 7", "city": "Gorssel", "postcode": "7213CN", "phone": "", "website": "https://www.weijler.nl/"}, {"latitude": 52.1344271, "longitude": 6.2286124, "name": "smilez mondhygiene & kindertandheelkunde", "address": "Runneboom 10a", "city": "Warnsveld", "postcode": "7232CX", "phone": "", "website": ""}, {"latitude": 52.1412186, "longitude": 6.2006444, "name": "Diseraad", "address": "Laarstraat 19", "city": "Zutphen", "postcode": "7201CA", "phone": "+31 575 541 602", "website": "https://www.tppdiseraad.nl/"}, {"latitude": 52.1373657, "longitude": 6.217419, "name": "Van Dooren Tandartsenpraktijk", "address": "Piet Heinstraat 2", "city": "Zutphen", "postcode": "7204JN", "phone": "", "website": "http://tandartsvandooren.tandartsennet.nl"}, {"latitude": 52.1438921, "longitude": 6.1964745, "name": "Tandarts van Egdom", "address": "Nieuwstad 27", "city": "Zutphen", "postcode": "7201NK", "phone": "", "website": "https://www.tandartsvanegdom.nl"}, {"latitude": 52.1408483, "longitude": 6.2031728, "name": "Orthodontisten Zutphen", "address": "Hogestraatje 3", "city": "Zutphen", "postcode": "7201CJ", "phone": "+31 575 511 544", "website": "https://www.orthodontistenzutphen.nl/"}, {"latitude": 52.1478019, "longitude": 6.2005939, "name": "Tandartspraktijk de Hanze", "address": "Coehoornsingel 8", "city": "Zutphen", "postcode": "7201AB", "phone": "+31 575 514739", "website": "https://www.dehanze.nl/"}, {"latitude": 52.140039, "longitude": 6.197457, "name": "Zaadmarkt", "address": "Zaadmarkt 97", "city": "Zutphen", "postcode": "7201DD", "phone": "", "website": "https://www.tandartsenpraktijkzaadmarkt.nl/"}, {"latitude": 52.1432166, "longitude": 6.196119, "name": "De Overwelving Tandartsenpraktijk", "address": "Overwelving 6", "city": "Zutphen", "postcode": "7201LT", "phone": "", "website": ""}, {"latitude": 52.1593334, "longitude": 6.4092877, "name": "Polman Tandarts", "address": "Fran\u00e7ois Ballochilaan 83a", "city": "Lochem", "postcode": "7242AS", "phone": "", "website": "http://www.tandheelkundrpolman.nl"}, {"latitude": 52.0856708, "longitude": 5.1437694, "name": "Tandartspraktijk Winter", "address": "Jan van Scorelstraat 51", "city": "Utrecht", "postcode": "3583CK", "phone": "+31 30 251 1313", "website": "https://tandartspraktijkwinter.nl"}, {"latitude": 52.3097878, "longitude": 6.5193304, "name": "PVM", "address": "Huttenwal 42", "city": "Rijssen", "postcode": "7462AC", "phone": "", "website": ""}, {"latitude": 52.0863286, "longitude": 5.1523463, "name": "De kliniek voor Tandheelkunde", "address": "Jan Muschlaan 21", "city": "Utrecht", "postcode": "3584GV", "phone": "+31 30 250 02 90", "website": ""}, {"latitude": 51.9585697, "longitude": 6.3000718, "name": "DoeDental", "address": "Julianaplein 44", "city": "Doetinchem", "postcode": "7003DW", "phone": "+31 314 342226", "website": "https://doedental.nl"}, {"latitude": 52.0892255, "longitude": 5.1433135, "name": "Sure Dental", "address": "Dillenburgstraat 11", "city": "Utrecht", "postcode": "3583VB", "phone": "+31 30 2516343", "website": "https://www.suredental.nl/"}, {"latitude": 52.0886571, "longitude": 5.139032, "name": "Wilhelminapark", "address": "Wilhelminapark 26", "city": "Utrecht", "postcode": "3581NE", "phone": "", "website": ""}, {"latitude": 52.0913492, "longitude": 5.134226, "name": "Maliekwartier Tandartsen", "address": "Maliebaan 67", "city": "Utrecht", "postcode": "3581CE", "phone": "+31 30 760 1267", "website": ""}, {"latitude": 52.0889226, "longitude": 5.1377997, "name": "Dentalcare Utrecht", "address": "Burgemeester Reigerstraat 80A", "city": "Utrecht", "postcode": "3581KW", "phone": "", "website": ""}, {"latitude": 52.1420572, "longitude": 5.3995247, "name": "Mondzorgcentrum Amersfoort", "address": "Dorresteinseweg 16", "city": "Amersfoort", "postcode": "3817GC", "phone": "", "website": ""}, {"latitude": 51.9198386, "longitude": 6.3603884, "name": "Xeldent", "address": "Hoofdstraat 14", "city": "Terborg", "postcode": "7061CK", "phone": "+31 315 700253", "website": "https://xeldent.nl"}, {"latitude": 51.9080592, "longitude": 6.3826108, "name": "Tandartspraktijk E. Tuner", "address": "Ulftseweg 56", "city": "Silvolde", "postcode": "7064BE", "phone": "", "website": ""}, {"latitude": 52.2500402, "longitude": 6.1956098, "name": "De Watersnip", "address": "Hunneperweg 2B", "city": "Deventer", "postcode": "7418EH", "phone": "+31 570 628 922", "website": "https://www.dewatersnip.com"}, {"latitude": 52.0988843, "longitude": 5.1293188, "name": "Tandartspraktijk Dalhuisen", "address": "Blauwkapelseweg 15", "city": "Utrecht", "postcode": "3572KA", "phone": "+31 30 2735552", "website": "https://www.tandartspraktijkdalhuisen.nl"}, {"latitude": 52.2609664, "longitude": 6.157033, "name": "De Deventer", "address": "Diepenveenseweg 21", "city": "Deventer", "postcode": "7413AK", "phone": "", "website": "https://www.dedeventertandartspraktijk.nl/"}, {"latitude": 52.2565794, "longitude": 6.1644291, "name": "Tandartsen Centrum Deventer", "address": "Brinkgreverweg 5", "city": "Deventer", "postcode": "7413AA", "phone": "", "website": "https://www.stcdeventer.nl/"}, {"latitude": 52.1626227, "longitude": 4.4719221, "name": "Mondhygienist CleanIQ", "address": "Gerard Brandtstraat 29a", "city": "Leiden", "postcode": "2332AK", "phone": "+31 71 576 7060", "website": "http://www.cleanIQ.nl"}, {"latitude": 52.149662, "longitude": 5.3780507, "name": "KTA Tandartsen", "address": "Utrechtseweg 78", "city": "Amersfoort", "postcode": "3818EN", "phone": "+31 33 741 0100", "website": "https://ktatandartsen.nl"}, {"latitude": 52.1519641, "longitude": 5.372329, "name": "Tandartsenpraktijk Niers", "address": "Koningin Wilhelminalaan 32A", "city": "Amersfoort", "postcode": "3818HP", "phone": "", "website": "https://www.tandartspraktijkniers.nl"}, {"latitude": 52.1523889, "longitude": 5.3734694, "name": "Mondhygi\u00ebnistenpraktijk Engelaer", "address": "Koningin Wilhelminalaan 39", "city": "Amersfoort", "postcode": "3818HN", "phone": "+31 33 200 7008", "website": "https://www.mondhygienistenengelaer.nl/"}, {"latitude": 52.15247, "longitude": 5.3734725, "name": "Praktijk Bergkwartier", "address": "Koningin Wilhelminalaan 37", "city": "Amersfoort", "postcode": "3818HN", "phone": "", "website": "https://www.praktijkbergkwartier.nl/"}, {"latitude": 52.1530733, "longitude": 5.3795871, "name": "Het Beugelkwartier", "address": "Vlasakkerweg 46", "city": "Amersfoort", "postcode": "3811MT", "phone": "", "website": "https://www.hetbeugelkwartier.nl"}, {"latitude": 52.1592028, "longitude": 5.3707166, "name": "De Tandenbleker", "address": "Noordewierweg 31", "city": "Amersfoort", "postcode": "3812DB", "phone": "", "website": "https://detandenblekernederland.nl/tanden-bleken-amersfoort/"}, {"latitude": 52.2280142, "longitude": 5.9865409, "name": "Sanadens", "address": "Pythagorasstraat 4", "city": "Apeldoorn", "postcode": "7323HE", "phone": "+31 55 366 4924", "website": "https://www.sanadens.nl/"}, {"latitude": 52.2255044, "longitude": 5.9918108, "name": "Sprenkelaar Tandartsen en Orthodontie (SPTO)", "address": "Agricolastraat 46", "city": "Apeldoorn", "postcode": "7323JJ", "phone": "+31 55 785 9705", "website": "https://www.spto.nl/"}, {"latitude": 52.0915793, "longitude": 5.1235776, "name": "AVT-Kliniek", "address": "Pieterskerkhof 25", "city": "Utrecht", "postcode": "3512JS", "phone": "+31 30 234 1968", "website": "https://www.avtkliniek.nl/"}, {"latitude": 52.0922026, "longitude": 5.1229414, "name": "Studentist", "address": "Keistraat 4", "city": "Utrecht", "postcode": "3512HV", "phone": "", "website": ""}, {"latitude": 52.1885036, "longitude": 5.9435454, "name": "Mondzorg van As", "address": "Ugchelseweg 34", "city": "Ugchelen", "postcode": "7339CK", "phone": "", "website": "https://www.mondzorgvanas.nl/"}, {"latitude": 52.193495, "longitude": 5.9736525, "name": "Broekhuis", "address": "1e Wormenseweg 324", "city": "Apeldoorn", "postcode": "7333GZ", "phone": "", "website": ""}, {"latitude": 52.1934212, "longitude": 5.9660601, "name": "Van Heijst", "address": "Hofveld 55", "city": "Apeldoorn", "postcode": "7333BG", "phone": "+31 55 533 3670", "website": "https://tandartsvanheijst.nl/"}, {"latitude": 52.1958842, "longitude": 6.0085698, "name": "Smile Dent", "address": "Viltmakersdonk 233", "city": "Apeldoorn", "postcode": "7326LP", "phone": "", "website": ""}, {"latitude": 52.1989977, "longitude": 5.9918224, "name": "Samenwerkende Tandartsen", "address": "Waleweingaarde 6", "city": "Apeldoorn", "postcode": "7329BD", "phone": "+31 55 539 6587", "website": "https://www.samenwerkendetandartsen.nl/praktijken/apeldoorn-de-maten"}, {"latitude": 52.2063793, "longitude": 5.9829333, "name": "4Dental Tandtechniek Apeldoorn", "address": "Molenmakershoek 21", "city": "Apeldoorn", "postcode": "7328JK", "phone": "", "website": "https://www.4dental.nl/apeldoorn"}, {"latitude": 52.2085024, "longitude": 5.9813511, "name": "Tandartspraktijk van Wayenburg", "address": "Ovenbouwershoek 31", "city": "Apeldoorn", "postcode": "7328JH", "phone": "+31 55 303 0660", "website": "https://www.tandartspraktijkvanwayenburg.nl"}, {"latitude": 52.2231692, "longitude": 5.9757379, "name": "Dental Clinics Apeldoorn", "address": "Zonnedauw 3", "city": "Apeldoorn", "postcode": "7322EA", "phone": "+31 55 521 6125", "website": "https://www.dentalclinics.nl/tandarts/apeldoorn/"}, {"latitude": 52.2177277, "longitude": 5.9928558, "name": "Tandartsenpraktijk Ter Hoeve Vasmel", "address": "Kamillestraat 7", "city": "Apeldoorn", "postcode": "7322PK", "phone": "+31 55 367 02 92", "website": "https://www.thvtandartsen.nl"}, {"latitude": 52.2161347, "longitude": 5.9566085, "name": "Beekpark Tandartsen", "address": "Roggestraat 158", "city": "Apeldoorn", "postcode": "7311CE", "phone": "+31 55 5224040", "website": "https://www.beekparktandartsen.nl/"}, {"latitude": 52.2216817, "longitude": 5.9546124, "name": "Topclass Mondzorg", "address": "Daendelsweg 2", "city": "Apeldoorn", "postcode": "7315AJ", "phone": "+31 88 0300700", "website": "https://topclassmondzorg.nl"}, {"latitude": 52.2168879, "longitude": 5.9640615, "name": "MP3 Tandartsen", "address": "Regentesselaan 3", "city": "Apeldoorn", "postcode": "7316AA", "phone": "+31 55 355 3153", "website": "https://mp3tandartsen.nl/"}, {"latitude": 52.2250655, "longitude": 5.9559868, "name": "De Mondhoek", "address": "Zwolse Binnenweg 5", "city": "Apeldoorn", "postcode": "7315CA", "phone": "+31 55 521 2277", "website": "https://www.mondhoek.nl"}, {"latitude": 52.2083787, "longitude": 5.9381338, "name": "Willem Bosma", "address": "Asselsestraat 284", "city": "Apeldoorn", "postcode": "7312DD", "phone": "+31 55 355 1285", "website": "https://www.tandartsbosma.nl/"}, {"latitude": 52.2195403, "longitude": 5.945788, "name": "Lodewijkveste Tandartsen", "address": "Koning Lodewijklaan 332", "city": "Apeldoorn", "postcode": "7314GP", "phone": "+31 55 356 3773", "website": "https://www.lodewijkvestetandartsen.nl/"}, {"latitude": 52.2205997, "longitude": 5.953338, "name": "Dental Zorg Apeldoorn", "address": "Soerenseweg 8", "city": "Apeldoorn", "postcode": "7314CC", "phone": "+31 55 312 1575", "website": "https://www.dentalzorgapeldoorn.nl"}, {"latitude": 52.2008205, "longitude": 5.9554837, "name": "Hartman en Mulder Tandartsen", "address": "Hoge Dries 355", "city": "Apeldoorn", "postcode": "7335AT", "phone": "+31 55 533 6916", "website": "https://www.hmtandartsen.nl/"}, {"latitude": 52.1875913, "longitude": 5.3792242, "name": "Tandartsenpraktijk Edith van Noort", "address": "Berkenlaan 48A", "city": "Hoogland", "postcode": "3828BR", "phone": "", "website": "https://www.tandartspraktijkhoogland.nl"}, {"latitude": 52.1910978, "longitude": 5.3775728, "name": "Tandartspraktijk Mei", "address": "Kolkrijst 124", "city": "Hoogland", "postcode": "3828EP", "phone": "+31 33 479 3956", "website": "https://tandartspraktijkmei.nl/"}, {"latitude": 52.2139239, "longitude": 5.9601918, "name": "Tandzorg Apeldoorn", "address": "Nieuwstraat 249", "city": "Apeldoorn", "postcode": "7311BN", "phone": "+31 55 578 6364", "website": "https://www.dentalzorgapeldoorn.nl/"}, {"latitude": 52.2131853, "longitude": 5.9746153, "name": "PW3 mondzorg", "address": "Plantsoen Welgelegen 3", "city": "Apeldoorn", "postcode": "7321ZJ", "phone": "+31 55 541 2806", "website": "https://pw3mondzorg.nl/"}, {"latitude": 52.2119673, "longitude": 5.9740656, "name": "Mondhygi\u00ebnistenprakteik", "address": "Molenstraat-Centrum 493", "city": "Apeldoorn", "postcode": "7311XL", "phone": "+31 55 576 1222", "website": "https://www.mondhygienistenprakteik.nl/"}, {"latitude": 52.1887468, "longitude": 5.3829421, "name": "Tandartspraktijk Marcel Kruger", "address": "Engweg 5", "city": "Hoogland", "postcode": "3828CJ", "phone": "+31 33 480 4240", "website": "https://www.tandartskruger.nl/"}, {"latitude": 52.1955061, "longitude": 5.3892934, "name": "Ortholuna", "address": "Maanlander 16", "city": "Amersfoort", "postcode": "3824MP", "phone": "", "website": "https://ortholuna.com"}, {"latitude": 52.1987811, "longitude": 5.3761327, "name": "Dental care 4U", "address": "Regenboog 77", "city": "Amersfoort", "postcode": "3824ED", "phone": "+31 33 711 5533", "website": "https://www.dentalcare4u.nl"}, {"latitude": 52.0750694, "longitude": 4.4264752, "name": "Klap en Kraal tandartsen", "address": "Wilsveen 11", "city": "Leidschendam", "postcode": "2266LN", "phone": "+31 70 327 4100", "website": "https://www.klap-kraal.nl"}, {"latitude": 52.0737695, "longitude": 4.6654951, "name": "Tandartspraktijk de Koning", "address": "Overslag 12A", "city": "Boskoop", "postcode": "2771CE", "phone": "+31 172 217 486", "website": "https://www.tandartsdekoning.nl/"}, {"latitude": 52.0516326, "longitude": 4.6602703, "name": "Tandartspraktijk Oosten", "address": "Noordkade 64A", "city": "Waddinxveen", "postcode": "2741EZ", "phone": "+31 182 612 336", "website": "https://www.tandartspraktijkoosten.nl"}, {"latitude": 52.0444945, "longitude": 4.6543538, "name": "Orthospecialist Waddinxveen", "address": "Kerkweg-Oost 151A", "city": "Waddinxveen", "postcode": "2741HC", "phone": "+31 182 633 436", "website": "https://orthodontist-orthospecialist.nl/waddinxveen/"}, {"latitude": 52.0452466, "longitude": 4.6542037, "name": "Tandheelkundig Centrum Wij", "address": "Juliana van Stolberglaan 4", "city": "Waddinxveen", "postcode": "2741EG", "phone": "+31 182 613 040", "website": "https://www.tcw-waddinxveen.nl/"}, {"latitude": 52.0755376, "longitude": 4.344789, "name": "AG Mondhygienistenpraktijk", "address": "van Wassenaerstraat 2", "city": "Voorburg", "postcode": "2274RC", "phone": "", "website": "https://www.agmondhygienistepraktijk.nl/"}, {"latitude": 52.0751033, "longitude": 4.3462984, "name": "Shiny Smile", "address": "van Halewijnlaan 274", "city": "Voorburg", "postcode": "2274TV", "phone": "", "website": "https://shinysmile.nl/"}, {"latitude": 52.0692765, "longitude": 4.3666279, "name": "The Smile Gallery", "address": "Herenstraat 1", "city": "Voorburg", "postcode": "2271CA", "phone": "+31 70 200 2281", "website": "https://www.thesmilegallery.nl/"}, {"latitude": 52.0674727, "longitude": 4.363331, "name": "Tandartspraktijk van Putten", "address": "Franse Kerkstraat 3A", "city": "Voorburg", "postcode": "2271CM", "phone": "", "website": ""}, {"latitude": 52.0681209, "longitude": 4.3630992, "name": "Uw tandarts", "address": "Parkweg 65", "city": "Voorburg", "postcode": "2271AE", "phone": "", "website": "https://uwtandarts.nl/"}, {"latitude": 52.0926866, "longitude": 4.3274245, "name": "De Haagse Tandarts", "address": "Weissenbruchstraat 281", "city": "'s-Gravenhage", "postcode": "2596GH", "phone": "+31 70 762 0920", "website": "https://www.dehaagsetandarts.nl/"}, {"latitude": 52.0898801, "longitude": 4.3167994, "name": "Tandheelkundig Centrum Jan van Nassau", "address": "Jan van Nassaustraat 99", "city": "'s-Gravenhage", "postcode": "2596BR", "phone": "+31 70 324 5530", "website": "https://www.janvannassau.nl/"}, {"latitude": 52.0871741, "longitude": 4.3356967, "name": "Haagse Hout Tandartsen", "address": "Laan van Nieuw-Oost-Indi\u00eb 15", "city": "'s-Gravenhage", "postcode": "2593BJ", "phone": "", "website": "https://haagsehouttandartsen.nl/"}, {"latitude": 52.0874271, "longitude": 4.33448, "name": "Tandartspraktijk Draisma", "address": "Bezuidenhoutseweg 193", "city": "'s-Gravenhage", "postcode": "2594AJ", "phone": "", "website": "https://tandartsdraisma.tandartsennet.nl/"}, {"latitude": 52.0874087, "longitude": 4.3353846, "name": "La Clinique", "address": "Laan van Nieuw-Oost-Indi\u00eb 5", "city": "'s-Gravenhage", "postcode": "2593BH", "phone": "", "website": "https://www.laclinique.nl/"}, {"latitude": 52.0748014, "longitude": 4.3615841, "name": "Ortho Leidschendam-Voorburg", "address": "Burgemeester Feithplein 96", "city": "Voorburg", "postcode": "2273BW", "phone": "", "website": "https://www.ortho-lv.nl/"}, {"latitude": 52.0707896, "longitude": 4.3594811, "name": "M2 Tandartsen", "address": "Prins Bernhardlaan 1", "city": "Voorburg", "postcode": "2274HT", "phone": "", "website": "https://m2tandartsen.nl/"}, {"latitude": 52.0793361, "longitude": 4.3535508, "name": "Tandzorg Voorburg Savalle", "address": "Savallelaan 10", "city": "Voorburg", "postcode": "2273JX", "phone": "", "website": "https://www.tandzorgvoorburg.nl/"}, {"latitude": 52.0800668, "longitude": 4.353647, "name": "Syriana Tandartspraktijk", "address": "Bruijnings Ingenhoeslaan 138", "city": "Voorburg", "postcode": "2273KT", "phone": "", "website": "https://www.syrianatandartspraktijk.nl/"}, {"latitude": 52.07493, "longitude": 4.3608024, "name": "Make Me Smile", "address": "Prins Bernhardlaan 173", "city": "Voorburg", "postcode": "2273DP", "phone": "", "website": "https://tandartspraktijkmms.nl/"}, {"latitude": 52.0770847, "longitude": 4.3531104, "name": "Mond-Time", "address": "Koningin Julianalaan 182", "city": "Voorburg", "postcode": "2274JP", "phone": "+31 70 387 1230", "website": "https://mond-time.nl"}, {"latitude": 52.0803133, "longitude": 4.3541911, "name": "Mond en Balans", "address": "Bruijnings Ingenhoeslaan 186", "city": "Voorburg", "postcode": "2273KV", "phone": "", "website": "https://mondenbalans.nl/"}, {"latitude": 52.0769492, "longitude": 4.3537066, "name": "Tandprothetische Praktijk Voorburg", "address": "Koningin Julianalaan 216", "city": "Voorburg", "postcode": "2274JP", "phone": "", "website": "https://www.tppvoorburg.nl/"}, {"latitude": 52.0709922, "longitude": 4.3592935, "name": "Excent Tandtechniek Haaglanden", "address": "Prins Bernhardlaan 3A", "city": "Voorburg", "postcode": "2274HT", "phone": "", "website": "https://www.excent.eu/locaties/excent-tandtechniek-haaglanden/"}, {"latitude": 52.0896212, "longitude": 4.3755239, "name": "Tandartspraktijk Voorburg", "address": "Charlotte van Pallandtlaan 28", "city": "Voorburg", "postcode": "2272TR", "phone": "", "website": "https://www.tpvoorburg.nl/"}, {"latitude": 52.5910628, "longitude": 6.2816381, "name": "Veldman", "address": "Burg.Baron van Dedemstraat 1D", "city": "Nieuwleusen", "postcode": "7711HV", "phone": "", "website": ""}, {"latitude": 52.0502516, "longitude": 4.3493597, "name": "Hof van Hoornwijck, kliniek voor tandheelkunde", "address": "Laan van Zuid Hoorn 33", "city": "Rijswijk", "postcode": "2289DC", "phone": "+31 70 395 2244", "website": "https://www.hoornwijck-kliniek.nl/"}, {"latitude": 52.055485, "longitude": 4.3335623, "name": "Tandheelkundige kliniek Den Haag", "address": "Herenstraat 68", "city": "Rijswijk", "postcode": "2282BX", "phone": "", "website": ""}, {"latitude": 52.0613012, "longitude": 4.3284532, "name": "Art of Teeth", "address": "Van Musschenbroekstraat 180", "city": "'s-Gravenhage", "postcode": "2522AW", "phone": "+31 70 399 9053", "website": ""}, {"latitude": 52.0631859, "longitude": 4.3314113, "name": "Topdent Tandtechniek", "address": "Rijswijkseweg 231", "city": "'s-Gravenhage", "postcode": "2516HD", "phone": "", "website": ""}, {"latitude": 52.0595541, "longitude": 4.3339235, "name": "Tandartspraktijk E. K. K. Lieuw", "address": "Jan van der Heijdenstraat 12", "city": "'s-Gravenhage", "postcode": "2522EP", "phone": "", "website": ""}, {"latitude": 52.6003755, "longitude": 6.3942468, "name": "Tandartspraktijk Van Opijnen", "address": "Molenweg 10", "city": "Balkbrug", "postcode": "7707CD", "phone": "+31 523 657 328", "website": "https://tandartspraktijkbalkbrug.nl"}, {"latitude": 52.5260549, "longitude": 6.4223655, "name": "Tandartsenpraktijk Carrousel", "address": "Carrouselplein 4", "city": "Ommen", "postcode": "7731EG", "phone": "", "website": ""}, {"latitude": 52.5282463, "longitude": 6.4220013, "name": "Tandartsenpraktijk Rijnvis", "address": "van Reeuwijkstraat 52", "city": "Ommen", "postcode": "7731EH", "phone": "", "website": ""}, {"latitude": 52.5282066, "longitude": 6.4213962, "name": "Minto tandzorg", "address": "van Reeuwijkstraat 54", "city": "Ommen", "postcode": "7731EH", "phone": "", "website": ""}, {"latitude": 52.059622, "longitude": 4.3242299, "name": "Tandartspraktijk Laakkwartier", "address": "Goeverneurlaan 237", "city": "'s-Gravenhage", "postcode": "2523BE", "phone": "", "website": ""}, {"latitude": 52.0604367, "longitude": 4.326515, "name": "Tandartspraktijk Keep Smiling", "address": "Goeverneurlaan 29", "city": "'s-Gravenhage", "postcode": "2523BA", "phone": "+31 70 390 3070", "website": ""}, {"latitude": 52.095275, "longitude": 4.332379, "name": "Breitner Tandartsen", "address": "Breitnerlaan 301", "city": "'s-Gravenhage", "postcode": "2596HA", "phone": "+31 70 22 11 785", "website": "https://www.breitnertandartsen.nl/contact/"}, {"latitude": 52.0563422, "longitude": 4.3123918, "name": "MedDental", "address": "Ferrandweg 18", "city": "'s-Gravenhage", "postcode": "2523XT", "phone": "+31 70 406 2481", "website": "https://meddentalclinic.nl/"}, {"latitude": 52.0563393, "longitude": 4.3151121, "name": "Balsam Mondzorg", "address": "Goeverneurlaan 629", "city": "'s-Gravenhage", "postcode": "2523CH", "phone": "+31 70 444 3944", "website": "https://balsammondzorg.nl/Home/"}, {"latitude": 52.0579972, "longitude": 4.3206409, "name": "Tandartspraktijk Goeverneurlaan", "address": "Goeverneurlaan 446", "city": "'s-Gravenhage", "postcode": "2523CK", "phone": "+31 70 393 0787", "website": "https://www.tandartsgoeverneurlaan.nl/"}, {"latitude": 52.0581416, "longitude": 4.3215857, "name": "Tandartspraktijk MK Dental", "address": "Jonckbloetplein 60", "city": "'s-Gravenhage", "postcode": "2523AT", "phone": "", "website": ""}, {"latitude": 52.0898953, "longitude": 4.3502046, "name": "Tandartsenpraktijk Van Joost", "address": "Haverkamp 224", "city": "'s-Gravenhage", "postcode": "2592BM", "phone": "", "website": ""}, {"latitude": 52.0890584, "longitude": 4.343499, "name": "Tandartspraktijk Haagwinde", "address": "Theresiastraat 397", "city": "'s-Gravenhage", "postcode": "2593AM", "phone": "", "website": "https://www.tandartspraktijkhaagwinde.nl/"}, {"latitude": 52.0884706, "longitude": 4.3540348, "name": "Tandartspraktijk OneWorld Dental", "address": "Tarwekamp 77", "city": "'s-Gravenhage", "postcode": "2592XH", "phone": "", "website": "https://www.oneworlddental.nl/"}, {"latitude": 52.0903103, "longitude": 4.3542018, "name": "Tandartspraktijk Mariahoeve", "address": "Ivoorhorst 403", "city": "'s-Gravenhage", "postcode": "2592TN", "phone": "", "website": "https://www.tandartspraktijkmariahoeve.nl/"}, {"latitude": 52.3804839, "longitude": 4.628255, "name": "Kirsten Knetsch", "address": "Wilhelminastraat 17", "city": "Haarlem", "postcode": "2011VH", "phone": "", "website": "https://www.tpkk.nl"}, {"latitude": 52.0300976, "longitude": 4.2998924, "name": "Morgenstond tandheelkunde", "address": "Sir Winston Churchillln 490", "city": "Rijswijk", "postcode": "2285ST", "phone": "+31 70 393 9335", "website": "https://www.tandarts-morgenstond.nl/"}, {"latitude": 52.0795288, "longitude": 4.3961594, "name": "Tandartspraktijk Leidschendam", "address": "Delftsekade 22", "city": "Leidschendam", "postcode": "2266AJ", "phone": "", "website": "https://www.tandartsleidschendam.nl/"}, {"latitude": 52.0874881, "longitude": 4.4012276, "name": "Tandarts W.H.C. Smits", "address": "Oude Trambaan 117", "city": "Leidschendam", "postcode": "2265DA", "phone": "+31 70 320 80 10", "website": "https://www.whcsmits.nl/"}, {"latitude": 52.0816621, "longitude": 4.3963887, "name": "Dental Clinics Leidschendam", "address": "Damlaan 17", "city": "Leidschendam", "postcode": "2265AL", "phone": "", "website": "https://www.dentalclinics.nl/tandarts/leidschendam/"}, {"latitude": 52.0802835, "longitude": 4.3970713, "name": "Tandartspraktijk Kettler", "address": "Damplein 49", "city": "Leidschendam", "postcode": "2265AD", "phone": "", "website": "https://www.tandartspraktijkkettler.nl/"}, {"latitude": 52.0825187, "longitude": 4.3948923, "name": "MZD", "address": "Damlaan 55", "city": "Leidschendam", "postcode": "2265AM", "phone": "", "website": "https://mzddental.nl/"}, {"latitude": 52.0880929, "longitude": 4.4022762, "name": "Mondzorggilde Leidschendam", "address": "Oude Trambaan 93", "city": "Leidschendam", "postcode": "2265CA", "phone": "", "website": "https://www.mondzorggilde.nl/praktijk/mondzorggilde-leidschendam"}, {"latitude": 52.0859338, "longitude": 4.3898028, "name": "Tandheelkundig Centrum VEUR", "address": "Neherpark 1", "city": "Leidschendam", "postcode": "2264ZD", "phone": "", "website": "https://www.thcveur.nl/"}, {"latitude": 52.0846075, "longitude": 4.3929327, "name": "Tandartspraktijk Leder", "address": "Johann Sebastian Bachlaan 135", "city": "Leidschendam", "postcode": "2264WD", "phone": "", "website": "https://www.tpleder.nl/"}, {"latitude": 51.4195734, "longitude": 5.4426259, "name": "Tandartsen Kastelenplein", "address": "Kastelenplein 174", "city": "Eindhoven", "postcode": "5653LX", "phone": "", "website": "https://tandartsenkastelenplein.tandartsennet.nl/"}, {"latitude": 52.0871749, "longitude": 4.398442, "name": "Tandartspraktijk Holthuysen-Esbach", "address": "Koningin Julianaweg 103", "city": "Leidschendam", "postcode": "2264BC", "phone": "", "website": "https://holthuysenesbach.tandartsennet.nl/"}, {"latitude": 52.0556908, "longitude": 4.3372391, "name": "Mondzorg Emmastraat", "address": "Emmastraat 8", "city": "Rijswijk", "postcode": "2282AP", "phone": "+31 70 2054863", "website": "https://mondzorgemmastraat.nl"}, {"latitude": 52.097505, "longitude": 4.3876725, "name": "Tandartspraktijk E.R. Verwer", "address": "Fazantlaan 11", "city": "Leidschendam", "postcode": "2261BS", "phone": "", "website": "https://www.tandartsverwer.nl/"}, {"latitude": 52.0947444, "longitude": 4.3998679, "name": "Tandartsenpraktijk & Dental Clinic Prinsenhof", "address": "Gravin Juliana van Stolberglaan 483", "city": "Leidschendam", "postcode": "2263AR", "phone": "", "website": "https://tandartspraktijkprinsenhof.nl/"}, {"latitude": 52.0945304, "longitude": 4.3993904, "name": "Tandartsenpraktijk & Dental Clinic Prinsenhof", "address": "Gravin Juliana van Stolberglaan 501", "city": "Leidschendam", "postcode": "2263AR", "phone": "", "website": "https://tandartspraktijkprinsenhof.nl/"}, {"latitude": 52.1139376, "longitude": 4.3527355, "name": "Visser Fine Dentistry", "address": "Duinrooslaan 2", "city": "Wassenaar", "postcode": "2244AW", "phone": "", "website": "https://visserfinedentistry.nl/"}, {"latitude": 52.3859145, "longitude": 4.6208097, "name": "Parodontologie Haarlem", "address": "Zijlweg 144", "city": "Haarlem", "postcode": "2015BH", "phone": "", "website": ""}, {"latitude": 51.4361865, "longitude": 5.4514696, "name": "Strijp Mondzorg", "address": "Botenlaan 82", "city": "Eindhoven", "postcode": "5652CB", "phone": "", "website": ""}, {"latitude": 52.0646289, "longitude": 4.3577474, "name": "PW Haans", "address": "Sonnenburghlaan 214", "city": "Voorburg", "postcode": "2275AT", "phone": "", "website": "https://tandartspraktijkhaans.tandartsennet.nl/"}, {"latitude": 52.0598512, "longitude": 4.345076, "name": "2 for Teeth", "address": "Prinses Mariannelaan 217", "city": "Voorburg", "postcode": "2275BG", "phone": "", "website": ""}, {"latitude": 52.3917209, "longitude": 4.633819, "name": "Tandarts Vet & de Ponti", "address": "Leo Gestelstraat 2", "city": "Haarlem", "postcode": "2023XW", "phone": "", "website": "https://vetendeponti.nl"}, {"latitude": 52.3993681, "longitude": 4.635866, "name": "Kennemerland", "address": "Marnixstraat 80", "city": "Haarlem", "postcode": "2023RG", "phone": "", "website": "https://kennemerland.nl"}, {"latitude": 52.3933109, "longitude": 4.6388042, "name": "Tandheelkundig Centrum De Ripperda", "address": "Sint-Jorisveld 75", "city": "Haarlem", "postcode": "2023GE", "phone": "", "website": "https://www.tcderipperda.nl/"}, {"latitude": 52.3939536, "longitude": 4.6334641, "name": "Noorderkerk Dental Center | NKDC", "address": "Velserstraat 77", "city": "Haarlem", "postcode": "2023EB", "phone": "", "website": "https://www.nkdchaarlem.nl/"}, {"latitude": 52.1427141, "longitude": 4.4042256, "name": "Tandarts Duns", "address": "Zijllaan 30B", "city": "Wassenaar", "postcode": "2241KC", "phone": "", "website": "https://www.tandartsduns.nl/"}, {"latitude": 52.1418136, "longitude": 4.3956883, "name": "Dental Clinics Wassenaar", "address": "Herenweg 1", "city": "Wassenaar", "postcode": "2242ER", "phone": "", "website": "https://www.dentalclinics.nl/tandarts/wassenaar/"}, {"latitude": 52.1432788, "longitude": 4.3929257, "name": "Tandheelkundig Centrum Wassenaar", "address": "Kloosterland 1", "city": "Wassenaar", "postcode": "2242JS", "phone": "", "website": "https://www.tandheelkundigcentrumwassenaar.nl/"}, {"latitude": 52.1431633, "longitude": 4.3930997, "name": "Sanders-Mello", "address": "Kerkstraat 16", "city": "Wassenaar", "postcode": "2242HG", "phone": "", "website": "https://www.sandersmello.nl/nl"}, {"latitude": 52.14057, "longitude": 4.3903563, "name": "Happy Tooth Wassenaar", "address": "Pastoor Buyslaan 25", "city": "Wassenaar", "postcode": "2242RJ", "phone": "", "website": "https://www.happytoothwassenaar.nl"}, {"latitude": 52.4044897, "longitude": 4.6484906, "name": "Shaam Dental Clinic", "address": "Rijksstraatweg 116", "city": "Haarlem", "postcode": "2022DE", "phone": "", "website": "https://shaamdental.nl/"}, {"latitude": 52.4047184, "longitude": 4.6485714, "name": "Tandartspraktijk Rijksstraatweg", "address": "Rijksstraatweg 126", "city": "Haarlem", "postcode": "2022DE", "phone": "", "website": "https://www.tandartsrijksstraatweg.nl/"}, {"latitude": 52.0840683, "longitude": 5.1084173, "name": "Dental Studio Utrecht", "address": "Groenmarktstraat 1", "city": "Utrecht", "postcode": "3521AV", "phone": "+31 30 2991120", "website": "https://dentalstudioutrecht.nl"}, {"latitude": 52.174359, "longitude": 5.4565701, "name": "Tandheelkundig Centrum Hoevelaken", "address": "Nachtegaallaan 1", "city": "Hoevelaken", "postcode": "3871HJ", "phone": "+31 33 2535407", "website": "https://www.tchoevelaken.nl/"}, {"latitude": 52.4166022, "longitude": 4.6474596, "name": "Tandartspraktijk Kennemerland", "address": "Marsmanplein 90", "city": "Haarlem", "postcode": "2025DT", "phone": "", "website": "https://www.kennemerland.nl/"}, {"latitude": 52.1762504, "longitude": 5.4557389, "name": "Van Zalingen Tandartsenpraktijk", "address": "Kantemarsweg 6", "city": "Hoevelaken", "postcode": "3871AP", "phone": "", "website": ""}, {"latitude": 52.1235793, "longitude": 4.4438696, "name": "DeltaDents", "address": "Schoolstraat 125", "city": "Voorschoten", "postcode": "2251BG", "phone": "", "website": "https://deltadents.nl/"}, {"latitude": 52.1244954, "longitude": 4.4454234, "name": "Tandartspraktijk Voorschoten", "address": "Schoolstraat 69", "city": "Voorschoten", "postcode": "2251BG", "phone": "", "website": ""}, {"latitude": 51.4149595, "longitude": 5.4365403, "name": "Tandheelkundig Centrum Hanevoet", "address": "Oldengaarde 17", "city": "Eindhoven", "postcode": "5655CP", "phone": "", "website": "https://tchanevoet.nl/"}, {"latitude": 52.4127211, "longitude": 4.6512874, "name": "Tandarts Haarlem (Noord) Mondzorgpraktijk & Mondzorghygi\u00ebnist", "address": "Rijksstraatweg 346", "city": "Haarlem", "postcode": "2025DP", "phone": "+31 23 538 0044", "website": "https://mondzorgpraktijkhn.nl/"}, {"latitude": 51.9867942, "longitude": 5.9246031, "name": "Tandartspraktijk Smans", "address": "Velperweg 31", "city": "Arnhem", "postcode": "6824BD", "phone": "+31 26 442 1885", "website": "https://www.gsmans.nl/"}, {"latitude": 51.9877773, "longitude": 5.9084472, "name": "Tandartsenpraktijk Apeldoornseweg 59", "address": "Apeldoornseweg 59", "city": "Arnhem", "postcode": "6814BJ", "phone": "", "website": "https://www.apeldoornseweg59.nl/"}, {"latitude": 52.074433, "longitude": 4.3067655, "name": "Tandarts Prinsegracht", "address": "Prinsegracht 24", "city": "'s-Gravenhage", "postcode": "2512GA", "phone": "", "website": ""}, {"latitude": 51.5144028, "longitude": 5.3980907, "name": "Tandartspraktijk van Kemenade", "address": "Nieuwstraat 60A", "city": "Best", "postcode": "5683KD", "phone": "", "website": ""}, {"latitude": 52.0023866, "longitude": 5.9098629, "name": "Praktijk voor Parodontologie en Implantologie Arnhem", "address": "Mahlerstraat 4", "city": "Arnhem", "postcode": "6815CM", "phone": "", "website": "https://ppia.nl/"}, {"latitude": 52.0932748, "longitude": 5.0911458, "name": "Tandartspraktijk Jaffapark", "address": "Niasstraat 8", "city": "Utrecht", "postcode": "3531WP", "phone": "+31 30 292 0353", "website": "https://jaffapark.tandartsennet.nl/"}, {"latitude": 52.0897225, "longitude": 5.0880397, "name": "Tandartspraktijk Oog in Al", "address": "Kanaalweg 93", "city": "Utrecht", "postcode": "3533HH", "phone": "", "website": "https://www.tandartspraktijkooginal.nl/"}, {"latitude": 51.9871078, "longitude": 5.9561299, "name": "Tandartspraktijk Adolfsen", "address": "Muiderslotstraat 30", "city": "Arnhem", "postcode": "6825AV", "phone": "+31 26 361 1411", "website": "https://tandartsadolfsen.tandartsennet.nl/"}, {"latitude": 52.0211291, "longitude": 4.2951529, "name": "Dental Diamond", "address": "Kopenhagenweg 2", "city": "'s-Gravenhage", "postcode": "2548TP", "phone": "+31 70 369 6650", "website": "https://www.dentaldiamond.nl/"}, {"latitude": 52.0808283, "longitude": 4.3081528, "name": "Dental Clinic", "address": "Heulstraat 13", "city": "'s-Gravenhage", "postcode": "2514ER", "phone": "", "website": ""}, {"latitude": 52.0816509, "longitude": 4.3063691, "name": "Tanden & Zo", "address": "Noordeinde 94A", "city": "'s-Gravenhage", "postcode": "2514GM", "phone": "", "website": ""}, {"latitude": 51.9961361, "longitude": 5.8812122, "name": "Mondgezond", "address": "Breitnerstraat 24", "city": "Arnhem", "postcode": "6813HR", "phone": "", "website": ""}, {"latitude": 51.9978832, "longitude": 5.8820666, "name": "Tandartspraktijk Swaters & Kremer", "address": "Mauvestraat 46", "city": "Arnhem", "postcode": "6813JM", "phone": "", "website": ""}, {"latitude": 52.083942, "longitude": 4.312005, "name": "Plasman", "address": "Nieuwe Schoolstraat 1A", "city": "'s-Gravenhage", "postcode": "2514HT", "phone": "", "website": ""}, {"latitude": 52.3678034, "longitude": 4.8942631, "name": "Studentist", "address": "Nieuwe Doelenstraat 1A", "city": "Amsterdam", "postcode": "1012CP", "phone": "", "website": ""}, {"latitude": 51.9856279, "longitude": 5.8804244, "name": "Tandartspraktijk Tamminga", "address": "Wilhelminastraat 23", "city": "Arnhem", "postcode": "6812CT", "phone": "", "website": ""}, {"latitude": 52.0775795, "longitude": 4.3045801, "name": "Dental Haaglanden", "address": "Korte Vleerstraat 16", "city": "'s-Gravenhage", "postcode": "2513VM", "phone": "", "website": "https://dentalhaaglanden.nl/"}, {"latitude": 52.0765787, "longitude": 4.3039052, "name": "Tandartspraktijk Westeinde", "address": "Westeinde 47A", "city": "'s-Gravenhage", "postcode": "2512GT", "phone": "+31 70 345 37 37", "website": "https://www.tandartswesteinde.nl/"}, {"latitude": 52.66083, "longitude": 5.5959765, "name": "Mondzorg Urk", "address": "Wijk 1 46", "city": "Urk", "postcode": "8321EM", "phone": "+31 527 690 671", "website": "https://www.mondzorgurk.nl/"}, {"latitude": 52.6802792, "longitude": 5.9571471, "name": "Tandartspraktijk Vollenhove", "address": "Het Franse Pad 2", "city": "Vollenhove", "postcode": "8325CN", "phone": "", "website": ""}, {"latitude": 51.9610387, "longitude": 5.8581155, "name": "Mondzorgpraktijk De Parel", "address": "Dordrechtweg 4", "city": "Arnhem", "postcode": "6843DM", "phone": "", "website": ""}, {"latitude": 51.961241, "longitude": 5.8579982, "name": "Orthodontistenpraktijk Roelofs", "address": "Dordrechtweg 8", "city": "Arnhem", "postcode": "6843DM", "phone": "", "website": ""}, {"latitude": 51.9611508, "longitude": 5.8575735, "name": "Tandartsenpraktijk Kooij-Diederen", "address": "Dordrechtweg 14", "city": "Arnhem", "postcode": "6843DM", "phone": "+31 26 381 4239", "website": "https://www.tandartskooijdiederen.nl"}, {"latitude": 52.0772535, "longitude": 4.3208828, "name": "Tandartspraktijk Den Haag Centrum", "address": "Ammunitiehaven 317", "city": "'s-Gravenhage", "postcode": "2511XL", "phone": "+31 70 3602023", "website": "https://tpdenhaagcentrum.nl"}, {"latitude": 52.0686989, "longitude": 4.3188982, "name": "Astina Dental", "address": "Parallelweg 20", "city": "'s-Gravenhage", "postcode": "2525NB", "phone": "", "website": ""}, {"latitude": 51.4229241, "longitude": 5.462366, "name": "Tandartsen Gestel", "address": "Bennekelstraat 7", "city": "Eindhoven", "postcode": "5654DB", "phone": "", "website": "https://www.tandartsengestel.nl/"}, {"latitude": 52.0708085, "longitude": 4.3197088, "name": "Mondzorg Hollandsspoor", "address": "Hoefkade 38", "city": "'s-Gravenhage", "postcode": "2526CA", "phone": "", "website": ""}, {"latitude": 52.0750107, "longitude": 5.0955795, "name": "Mondzorgcentrum Utrecht", "address": "Beneluxlaan 25", "city": "Utrecht", "postcode": "3527HS", "phone": "", "website": "https://www.mondzorgcentrum-utrecht.nl/"}, {"latitude": 51.9441278, "longitude": 5.8625355, "name": "Tandartspraktijk Bless", "address": "Randweg 5", "city": "Arnhem", "postcode": "6845AC", "phone": "+31 26 3817517", "website": "https://www.tandartspraktijkbless.nl"}, {"latitude": 51.9890986, "longitude": 5.9362562, "name": "Tandheelkundepraktijk Evers", "address": "Velperweg 98", "city": "Arnhem", "postcode": "6824HM", "phone": "+31 26 361 3329", "website": "http://www.tandartspraktijkevers.nl"}, {"latitude": 52.0634459, "longitude": 4.2894174, "name": "SB Tandartsen", "address": "De la Reyweg 495", "city": "'s-Gravenhage", "postcode": "2571EM", "phone": "+31 70 389 3232", "website": "https://www.sbtandartsen.nl/"}, {"latitude": 51.8042411, "longitude": 5.2328251, "name": "Centrum Tandprothetiek", "address": "de Schans 8", "city": "Zaltbommel", "postcode": "5301DL", "phone": "", "website": ""}, {"latitude": 51.5876615, "longitude": 4.7532702, "name": "Tandartspraktijk Tuinzigt", "address": "Clematisstraat 57", "city": "Breda", "postcode": "4814JX", "phone": "", "website": ""}, {"latitude": 51.6061652, "longitude": 4.787659, "name": "Gezonde Mooie Tanden - Hoge Vucht", "address": "Molstraat 36", "city": "Breda", "postcode": "4826KA", "phone": "+31 76 57 10 011", "website": "https://www.gezondemooietanden.nl/"}, {"latitude": 51.8716878, "longitude": 4.5820473, "name": "Dental Clinics Ridderkerk", "address": "Goudenregenplantsoen 201", "city": "Ridderkerk", "postcode": "2982TE", "phone": "+31 180 414725", "website": "https://www.dentalclinics.nl/tandarts/ridderkerk"}, {"latitude": 51.5987073, "longitude": 4.7925973, "name": "Mondzorg", "address": "Bali\u00ebndijk 10", "city": "Breda", "postcode": "4816GD", "phone": "", "website": "https://www.mondzorgbaliendijk.nl/"}, {"latitude": 51.5973299, "longitude": 4.7869965, "name": "Dental Clinics Breda Belcrum Linietel", "address": "Christiaan Huygensstraat 40", "city": "Breda", "postcode": "4816BK", "phone": "+31 76 581 0416", "website": "https://www.dentalclinics.nl/tandarts/breda-belcrum-linie/"}, {"latitude": 52.0675447, "longitude": 4.2874466, "name": "Tandartspraktijk Transvaal", "address": "De la Reyweg 166", "city": "'s-Gravenhage", "postcode": "2571GG", "phone": "", "website": ""}, {"latitude": 52.0666439, "longitude": 4.2843003, "name": "F&D Dental", "address": "Dierenselaan 125", "city": "'s-Gravenhage", "postcode": "2573KD", "phone": "", "website": ""}, {"latitude": 52.0691425, "longitude": 4.2849084, "name": "Tofdent Tandtechniek", "address": "De la Reyweg 99", "city": "'s-Gravenhage", "postcode": "2571EB", "phone": "", "website": ""}, {"latitude": 52.306013, "longitude": 4.638385, "name": "Tandartsenpraktijk Floriande", "address": "Doeverenplein 9", "city": "Hoofddorp", "postcode": "2134DN", "phone": "", "website": ""}, {"latitude": 52.0873298, "longitude": 4.2901587, "name": "W.A.L. Huysmans, tandarts", "address": "Buitenrustweg 6", "city": "'s-Gravenhage", "postcode": "2517KD", "phone": "", "website": "https://www.tandartshuysmans.nl"}, {"latitude": 52.3667911, "longitude": 4.8876935, "name": "Tandartspraktijk J.S.A.C. Vogelaar", "address": "Herengracht 422A", "city": "Amsterdam", "postcode": "1017BZ", "phone": "", "website": ""}, {"latitude": 52.081372, "longitude": 4.2972924, "name": "Dental Care 4 You", "address": "Piet Heinstraat 105", "city": "'s-Gravenhage", "postcode": "2518CE", "phone": "", "website": ""}, {"latitude": 52.0815427, "longitude": 4.2895672, "name": "J. Knops mondhygi\u00ebnist", "address": "Van Speijkstraat 205", "city": "'s-Gravenhage", "postcode": "2518GB", "phone": "", "website": ""}, {"latitude": 52.0828731, "longitude": 4.2942642, "name": "PHP Tandartsen", "address": "Prins Hendrikplein 8", "city": "'s-Gravenhage", "postcode": "2518JA", "phone": "+31 70 352 4955", "website": "https://www.phptandartsen.nl"}, {"latitude": 52.0862735, "longitude": 4.2985708, "name": "Haagse Tandartsen Praktijk", "address": "Anna Paulownastraat 103", "city": "'s-Gravenhage", "postcode": "2518BC", "phone": "", "website": ""}, {"latitude": 52.0864505, "longitude": 4.3099641, "name": "De Valk / Mesman", "address": "Cantaloupenburg 70", "city": "'s-Gravenhage", "postcode": "2514KM", "phone": "", "website": ""}, {"latitude": 52.088149, "longitude": 4.3110439, "name": "Tandartsenpraktijk Frederikstraat 827", "address": "Frederikstraat 827", "city": "'s-Gravenhage", "postcode": "2514LZ", "phone": "", "website": ""}, {"latitude": 51.6795286, "longitude": 5.3262707, "name": "Staas & Bergmans", "address": "Schubertsingel 32", "city": "'s-Hertogenbosch", "postcode": "5216XA", "phone": "+31 73 6133433", "website": "https://zorgvooruwmond.nl/contact/lokatie-schubertsingel/"}, {"latitude": 51.5898429, "longitude": 4.8055222, "name": "Centrum voor tandheelkunde", "address": "Mgr. de Vetstraat 112", "city": "Breda", "postcode": "4817JP", "phone": "+31 76 5225 919", "website": "https://www.cvt-breda.nl/"}, {"latitude": 51.590544, "longitude": 4.7994337, "name": "Tandarts Breda Brabantplein", "address": "Brabantplein 29", "city": "Breda", "postcode": "4817LR", "phone": "+31 6 1468 5825", "website": "https://www.tandartsbredabrabantplein.nl/"}, {"latitude": 52.0231219, "longitude": 4.2755295, "name": "Lie Tandartsen", "address": "Guldeland 5", "city": "Wateringen", "postcode": "2291VG", "phone": "+31 174 295 229", "website": "https://www.lietandartsen.nl/"}, {"latitude": 52.0583987, "longitude": 5.5766393, "name": "Tandartsenpraktijk Ederveen", "address": "Hoofdweg 81", "city": "Ederveen", "postcode": "6744WH", "phone": "", "website": ""}, {"latitude": 52.0733394, "longitude": 4.281733, "name": "Tandartspraktijk", "address": "Beeklaan 182", "city": "'s-Gravenhage", "postcode": "2562AP", "phone": "", "website": ""}, {"latitude": 52.0781684, "longitude": 4.2769143, "name": "Tandarts Den Haag", "address": "Valkenbosplein 21", "city": "'s-Gravenhage", "postcode": "2563CC", "phone": "", "website": ""}, {"latitude": 52.0768138, "longitude": 4.2723142, "name": "A.J.R. Linthorst", "address": "Laan van Meerdervoort 426", "city": "'s-Gravenhage", "postcode": "2563BE", "phone": "", "website": ""}, {"latitude": 52.1532288, "longitude": 4.4758689, "name": "Ton van den Berg", "address": "Willem Klooslaan 13", "city": "Leiden", "postcode": "2321BH", "phone": "", "website": "https://tandtechniekleiden.nl/"}, {"latitude": 52.1481878, "longitude": 4.4821037, "name": "Tandarts Dr. Zibold", "address": "Vrijheidslaan 57", "city": "Leiden", "postcode": "2321JR", "phone": "", "website": ""}, {"latitude": 52.0680864, "longitude": 4.2567588, "name": "Tandartspraktijk Tandbewust", "address": "Vlierboomstraat 498", "city": "'s-Gravenhage", "postcode": "2564JM", "phone": "", "website": "https://tandbewust.nl"}, {"latitude": 52.0642795, "longitude": 4.2578676, "name": "Tandartspraktijk Dovident", "address": "Abrikozenplein 56", "city": "'s-Gravenhage", "postcode": "2564PH", "phone": "", "website": ""}, {"latitude": 52.0702643, "longitude": 4.2547285, "name": "Orthodontistenpraktijk Beckman", "address": "Frambozenstraat 86", "city": "'s-Gravenhage", "postcode": "2564XN", "phone": "", "website": ""}, {"latitude": 52.0688449, "longitude": 4.2507525, "name": "2Dent Kliniek", "address": "Laan van Meerdervoort 896", "city": "'s-Gravenhage", "postcode": "2564AT", "phone": "", "website": ""}, {"latitude": 51.571124, "longitude": 4.8252161, "name": "Tandartspraktijk Manie", "address": "Tolakker 3", "city": "Bavel", "postcode": "4854NV", "phone": "+31 161 432 424", "website": "https://tandartspraktijkmanie.tandartsennet.nl/"}, {"latitude": 51.5684536, "longitude": 4.8262937, "name": "Tandarts Zweverink", "address": "Kerkstraat 42A", "city": "Bavel", "postcode": "4854CG", "phone": "+31 161 432 936", "website": "https://www.3htandheelkunde.nl/"}, {"latitude": 52.0352809, "longitude": 4.2665423, "name": "Mondzorg De Gaarde", "address": "Ambachtsgaarde 62", "city": "'s-Gravenhage", "postcode": "2542EG", "phone": "", "website": ""}, {"latitude": 52.0674757, "longitude": 5.1080514, "name": "Tandartsspoedpraktijk", "address": "Europaplein 352", "city": "Utrecht", "postcode": "3526WG", "phone": "", "website": "https://tandartsspoedpraktijk.nl/spoed-tandarts/utrecht/"}, {"latitude": 51.6000308, "longitude": 4.717955, "name": "Gezonde Mooie Tanden - Prinsenbeek", "address": "Markt 9-A1", "city": "Prinsenbeek", "postcode": "4841AA", "phone": "", "website": "https://www.gezondemooietanden.nl/"}, {"latitude": 51.9766706, "longitude": 4.3182667, "name": "Tandarts van Mierlo & Sieben", "address": "Kasteellaan 1", "city": "Schipluiden", "postcode": "2636HW", "phone": "+31 15 3808989", "website": "https://tandartsvanmierlo.nl/"}, {"latitude": 52.0644448, "longitude": 4.2523597, "name": "Pameijer Tandartsen", "address": "Albardastraat 1", "city": "'s-Gravenhage", "postcode": "2555XP", "phone": "", "website": ""}, {"latitude": 52.0593339, "longitude": 4.2314482, "name": "Tandartspraktijk Waldeck", "address": "Alphons Diepenbrockhof 164", "city": "'s-Gravenhage", "postcode": "2551LD", "phone": "", "website": ""}, {"latitude": 52.7030961, "longitude": 6.1978344, "name": "Tandartspraktijk Sietzema", "address": "Schaperstraat 16A", "city": "Meppel", "postcode": "7942AR", "phone": "", "website": "https://sietzema.tandartsennet.nl/"}, {"latitude": 52.6984482, "longitude": 6.1919427, "name": "Slotplantsoen", "address": "Slotplantsoen 1A", "city": "Meppel", "postcode": "7941LP", "phone": "", "website": ""}, {"latitude": 52.6985541, "longitude": 6.1935794, "name": "Orthodontistenpraktijk Meppel", "address": "Woldstraat 59", "city": "Meppel", "postcode": "7941LG", "phone": "", "website": ""}, {"latitude": 51.6225587, "longitude": 4.7435421, "name": "Gezonde Mooie Tanden - Haagse Beemden", "address": "Heksenkruid 11", "city": "Breda", "postcode": "4823JL", "phone": "", "website": "https://www.gezondemooietanden.nl/"}, {"latitude": 52.6924204, "longitude": 6.1950859, "name": "Orthodontist Munninghoff", "address": "Stationsweg 33", "city": "Meppel", "postcode": "7941HC", "phone": "", "website": ""}, {"latitude": 52.3043189, "longitude": 4.6915552, "name": "Mondhygi\u00ebnepraktijk Ricky L\u00ea", "address": "Hoofdweg 720", "city": "Hoofddorp", "postcode": "2132BV", "phone": "", "website": "http://www.mhpraktijkhoofddorp.nl/"}, {"latitude": 52.3009896, "longitude": 4.6649945, "name": "Centrum voor Tandheelkunde J. Jong Pian Kie", "address": "Markenburg 143", "city": "Hoofddorp", "postcode": "2135DX", "phone": "", "website": ""}, {"latitude": 52.0522169, "longitude": 4.2667082, "name": "Orthodontiepraktijk", "address": "Meppelweg 453", "city": "'s-Gravenhage", "postcode": "2544AL", "phone": "", "website": "https://www.orthomeppelweg.nl/"}, {"latitude": 51.6066479, "longitude": 4.7421226, "name": "Tandartspraktijk Brandebeemd", "address": "Brandebeemd 29", "city": "Breda", "postcode": "4824NT", "phone": "", "website": "https://www.tandartspraktijkbrandebeemd.nl"}, {"latitude": 52.2710708, "longitude": 4.6179749, "name": "Tandartspraktijk J. Groeneveld", "address": "Vivaldisingel 191", "city": "Nieuw-Vennep", "postcode": "2151NJ", "phone": "+31 252 689 777", "website": "http://www.groeneveldtandartspraktijk.nl/"}, {"latitude": 52.2655024, "longitude": 4.6275057, "name": "Mondhygi\u00ebniste Ilona Ophof", "address": "Elemastraat 117", "city": "Nieuw-Vennep", "postcode": "2151AJ", "phone": "+31 252 349 348", "website": "https://www.mondhygienisten.nl/mondhygienisten/praktijk-v-mondhygiene-ilona-ophof/"}, {"latitude": 52.265496, "longitude": 4.6277857, "name": "Tandartsenpraktijk Maarten Steven", "address": "Elemastraat 99", "city": "Nieuw-Vennep", "postcode": "2151AJ", "phone": "+31 252 626 537", "website": "http://www.mcstevens.nl/"}, {"latitude": 51.573224, "longitude": 4.8094812, "name": "Henneman van Hees orthodontisten", "address": "Heeckerenstraat 100", "city": "Breda", "postcode": "4834LR", "phone": "+31 76 561 3616", "website": "https://www.orthobreda.nl/"}, {"latitude": 52.3873371, "longitude": 6.0403036, "name": "Tandartspraktijk Heerde", "address": "Dorpsstraat 26", "city": "Heerde", "postcode": "8181HR", "phone": "+31 578 691848", "website": "https://tandartspraktijkheerde.nl/"}, {"latitude": 51.4871499, "longitude": 5.3927988, "name": "CDC Tandzorg", "address": "de Rijn 1", "city": "Best", "postcode": "5684PJ", "phone": "+31 88 232 8285", "website": "https://www.cdctandzorg.nl/"}, {"latitude": 52.877154, "longitude": 6.0010886, "name": "Ekhart", "address": "Pastoriestraat 4A", "city": "Wolvega", "postcode": "8471ZR", "phone": "", "website": ""}, {"latitude": 52.2653946, "longitude": 4.6343707, "name": "Frame Techniek", "address": "Hoofdweg 1167", "city": "Nieuw-Vennep", "postcode": "2152LL", "phone": "+31 252 672 311", "website": ""}, {"latitude": 52.2657891, "longitude": 4.6328274, "name": "Tandartsenpraktijk Welgelegen", "address": "Dorpstraat 5", "city": "Nieuw-Vennep", "postcode": "2152BA", "phone": "+31 252 687 000", "website": "https://tandartsenpraktijkwelgelegen.nl/"}, {"latitude": 52.2651002, "longitude": 4.6354019, "name": "Tandartspraktijk M.J. Stevens", "address": "Hoofdweg 1312", "city": "Nieuw-Vennep", "postcode": "2153LS", "phone": "", "website": ""}, {"latitude": 51.6887713, "longitude": 5.3074026, "name": "De Tandenbleker", "address": "Hinthamerstraat 79", "city": "'s-Hertogenbosch", "postcode": "5211MG", "phone": "", "website": ""}, {"latitude": 51.6858394, "longitude": 5.306329, "name": "Tandarts Verzijden", "address": "Verwersstraat 83", "city": "'s-Hertogenbosch", "postcode": "5211HV", "phone": "", "website": ""}, {"latitude": 51.6866132, "longitude": 5.3002126, "name": "Mint", "address": "Vughterstraat 86", "city": "'s-Hertogenbosch", "postcode": "5211GL", "phone": "", "website": ""}, {"latitude": 52.089308, "longitude": 5.0571535, "name": "Tandartspraktijk Parkwijk", "address": "Mierikswortelstraat 5", "city": "Utrecht", "postcode": "3544CM", "phone": "+31 30 230 4333", "website": "https://www.tandartszuilenparkwijk.nl/contact/"}, {"latitude": 51.8347103, "longitude": 4.1448458, "name": "Mondzorg Hellevoet", "address": "Bruggehoofd 2", "city": "Hellevoetsluis", "postcode": "3223DB", "phone": "+31 181 745 063", "website": "https://www.mondzorghellevoet.nl/"}, {"latitude": 51.5940527, "longitude": 4.7504626, "name": "Dental365", "address": "Stadionstraat 11-A1", "city": "Breda", "postcode": "4815NC", "phone": "+31 85 0189465", "website": "https://www.dental365.nl/"}, {"latitude": 51.5719934, "longitude": 4.7762492, "name": "G.P. Vonk Tandarts", "address": "Graaf Engelbertlaan 8", "city": "Breda", "postcode": "4819BN", "phone": "+31 76 565 3167", "website": ""}, {"latitude": 53.2318913, "longitude": 6.5211571, "name": "Tandartspraktijk Vinkhuizen", "address": "Aquamarijnstraat 723", "city": "Groningen", "postcode": "9743PT", "phone": "+31 50 577 4963", "website": "https://tandartspraktijkvinkhuizen.praktijkinfo.nl/"}, {"latitude": 51.5726455, "longitude": 4.7913625, "name": "Tandartspraktijk Rolf Hugo Jansens", "address": "Fatimastraat 110", "city": "Breda", "postcode": "4835BE", "phone": "", "website": "https://www.tandartsjansens.nl/"}, {"latitude": 53.210554, "longitude": 6.4975495, "name": "Tandartspraktijk Kooistra", "address": "Reddingiusweg 60", "city": "Groningen", "postcode": "9744BM", "phone": "+31 50 553 0483", "website": "https://www.tandartskooistra.nl/"}, {"latitude": 51.4212692, "longitude": 5.4882834, "name": "Tandartspraktijk van de Vondervoort", "address": "Sint Gerardusplein 13", "city": "Eindhoven", "postcode": "5644NG", "phone": "+31 40 2571791", "website": "https://www.tandarts-vondervoort.nl/"}, {"latitude": 51.4201255, "longitude": 5.495227, "name": "Dental Clinics", "address": "Kerstrooslaan 2", "city": "Eindhoven", "postcode": "5644EA", "phone": "", "website": ""}, {"latitude": 53.2006112, "longitude": 6.5599617, "name": "Tandartspraktijk DTG", "address": "Paterswoldseweg 450", "city": "Groningen", "postcode": "9728BB", "phone": "", "website": "https://www.tandartspraktijkdtg.nl/"}, {"latitude": 53.1933239, "longitude": 6.5716429, "name": "tandartspaktijk Van Kempen", "address": "Van Ketwich Verschuurlaan 149", "city": "Groningen", "postcode": "9721SJ", "phone": "+31 50 205 3156", "website": "https://www.tandartspraktijkvankempen.nl/"}, {"latitude": 53.1986075, "longitude": 6.5675525, "name": "Tandartspraktijk M. de Groot", "address": "Van Lenneplaan 3", "city": "Groningen", "postcode": "9721PC", "phone": "", "website": "https://www.tandartsmdegroot.nl/"}, {"latitude": 52.0069225, "longitude": 4.2265364, "name": "Tandartspraktijk Starrenburg", "address": "Dijkstraat 12", "city": "Honselersdijk", "postcode": "2675AX", "phone": "+31 174 631 413", "website": "https://www.tandartspraktijkstarrenburg.nl"}, {"latitude": 53.1929251, "longitude": 6.5864103, "name": "Fabius", "address": "Goeman Borgesiuslaan 129", "city": "Groningen", "postcode": "9722RG", "phone": "", "website": "https://www.tandartsfabius.nl/"}, {"latitude": 53.1950603, "longitude": 6.5823879, "name": "Mondzorg Westerhoff", "address": "Verlengde Hereweg 140", "city": "Groningen", "postcode": "9722AK", "phone": "+31 50 529 1935", "website": "https://www.mondzorgwesterhoff.nl/"}, {"latitude": 53.1930874, "longitude": 6.5860817, "name": "Tandartspraktijk Schepman-Drenth", "address": "Goeman Borgesiuslaan 47", "city": "Groningen", "postcode": "9722RC", "phone": "", "website": ""}, {"latitude": 52.2127882, "longitude": 5.28596, "name": "Tandartspraktijk", "address": "Nieuwstraat 5A-10", "city": "Baarn", "postcode": "3743BK", "phone": "", "website": ""}, {"latitude": 52.0631329, "longitude": 6.1852887, "name": "Mondzorg Steenderen", "address": "Kerkhofweg 21", "city": "Steenderen", "postcode": "7221AE", "phone": "+31 575 452076", "website": "https://www.mondzorgsteenderen.nl"}, {"latitude": 51.6921667, "longitude": 5.2865042, "name": "Tandarts Dona", "address": "Buys Ballotweg 31", "city": "'s-Hertogenbosch", "postcode": "5223GH", "phone": "+31 73 6216156", "website": "http://www.tandartsdona.nl"}, {"latitude": 51.8157879, "longitude": 4.6422144, "name": "Orthocenter", "address": "Stationsweg 41", "city": "Zwijndrecht", "postcode": "3331LR", "phone": "", "website": "https://www.orthocenter.nl/onze-orthodontiepraktijken/zwijndrecht/"}, {"latitude": 51.8227731, "longitude": 4.6365247, "name": "Valk Tandtechniek", "address": "Burgemeester Jansenlaan 14", "city": "Zwijndrecht", "postcode": "3331HN", "phone": "", "website": "https://valktandtechniek.nl/"}, {"latitude": 52.1003157, "longitude": 5.0319853, "name": "Tandartspraktijk Het Zand", "address": "Pablo Picassostraat 100", "city": "Utrecht", "postcode": "3544NX", "phone": "+31 30 6701351", "website": "https://www.tandartspraktijkhetzand.nl"}, {"latitude": 52.1002608, "longitude": 5.0324973, "name": "Tandheelkundig Centrum Contrast", "address": "Pablo Picassostraat 187", "city": "Utrecht", "postcode": "3544NX", "phone": "", "website": "https://thcc.nl"}, {"latitude": 53.2063532, "longitude": 6.6128476, "name": "Mondzorg Noord", "address": "Rigaweg 34", "city": "Groningen", "postcode": "9723TH", "phone": "", "website": "https://www.mondzorgnoord.nl"}, {"latitude": 51.8554131, "longitude": 4.3164376, "name": "Roland Willemse", "address": "'t Plateau 38", "city": "Spijkenisse", "postcode": "3202GM", "phone": "", "website": "https://www.rolandwillemse.nl/"}, {"latitude": 51.8536479, "longitude": 4.3087718, "name": "E. van de Merwe", "address": "Westersingel 7", "city": "Spijkenisse", "postcode": "3202XK", "phone": "", "website": ""}, {"latitude": 51.421653, "longitude": 5.5047243, "name": "Tandartspraktijk Tivoli", "address": "Tivolilaan 64A", "city": "Eindhoven", "postcode": "5643LB", "phone": "", "website": ""}, {"latitude": 51.8436299, "longitude": 4.3167039, "name": "Frank", "address": "Zwanenhoek 45", "city": "Spijkenisse", "postcode": "3201HT", "phone": "", "website": ""}, {"latitude": 52.3699018, "longitude": 4.9288928, "name": "Tandzorg Czaar Peter", "address": "Czaar Peterstraat 85", "city": "Amsterdam", "postcode": "1018PD", "phone": "", "website": "http://www.tandzorgczaarpeter.nl"}, {"latitude": 53.2415416, "longitude": 6.6155624, "name": "tandartspraktijk B.J. Tuik", "address": "Waterland 33", "city": "Groningen", "postcode": "9734BA", "phone": "", "website": "https://tandartstuik.tandartsennet.nl/"}, {"latitude": 51.226165, "longitude": 3.8007255, "name": "Mondzorg Sas van Gent", "address": "Stationsstraat 5", "city": "Sas van Gent", "postcode": "4551EK", "phone": "", "website": "https://www.mondzorgsasvangent.nl/"}, {"latitude": 53.2319174, "longitude": 6.6113496, "name": "tandartsenpraktijk Lewenborg", "address": "Getij 60", "city": "Groningen", "postcode": "9732MS", "phone": "", "website": "https://www.tandartsenpraktijklewenborg.nl/"}, {"latitude": 52.230661, "longitude": 6.0935724, "name": "Slot", "address": "Martinusweg 21", "city": "Twello", "postcode": "7391AC", "phone": "+31 571 271 868", "website": "https://mondengezondheid.nl/"}, {"latitude": 51.4273276, "longitude": 5.5040422, "name": "Praktijk voor mondhygi\u00ebne Stratum", "address": "Moreelselaan 90", "city": "Eindhoven", "postcode": "5643RP", "phone": "+31 40 2552838;+31 40 2903351", "website": "https://pvmstratum.nl"}, {"latitude": 53.2479365, "longitude": 6.5945751, "name": "Tandheelkundig Team Beijum", "address": "Emingaheerd 6", "city": "Groningen", "postcode": "9736GA", "phone": "+31 50 542 5280", "website": "https://www.tandarts-beijum.nl/"}, {"latitude": 51.9546931, "longitude": 5.9740879, "name": "Tandheelkunde Broeklanden", "address": "Broeklanden 20", "city": "Westervoort", "postcode": "6931XS", "phone": "+31 26 311 8660", "website": "https://www.tandheelkundebroeklanden.nl"}, {"latitude": 51.7789044, "longitude": 4.6836638, "name": "Tandartspraktijk Mebident", "address": "De Jagerweg 202", "city": "Dordrecht", "postcode": "3328HG", "phone": "+31 78 6171703", "website": "https://mebident.tandartsennet.nl/"}, {"latitude": 52.2113361, "longitude": 6.8639232, "name": "Tandartsen Stadsveld", "address": "Wethouder Nijhuisstraat 225A", "city": "Enschede", "postcode": "7545NG", "phone": "", "website": ""}, {"latitude": 51.8533356, "longitude": 4.5467972, "name": "Tandartspraktijk Albertsz", "address": "Kruidentuin 3", "city": "Barendrecht", "postcode": "2991RK", "phone": "+31 180 618 323", "website": "https://www.tandartspraktijkalbertsz.nl/"}, {"latitude": 51.8538785, "longitude": 4.5406749, "name": "De Schalm Tandtechniek", "address": "Middenbaan 42", "city": "Barendrecht", "postcode": "2991CT", "phone": "", "website": ""}, {"latitude": 51.8539225, "longitude": 4.5404518, "name": "Mondzorg Middenbaan", "address": "Middenbaan 46", "city": "Barendrecht", "postcode": "2991CT", "phone": "+31 180 222 268", "website": "https://www.mondzorgmiddenbaan.nl/"}, {"latitude": 51.8518717, "longitude": 4.5487842, "name": "Tandarts- & Mondhygienepraktijk Het Oude Dorp", "address": "Gouwe 7b", "city": "Barendrecht", "postcode": "2991CJ", "phone": "+31 180 859 698", "website": "https://mondhygienepraktijkhetoudedorp.nl/"}, {"latitude": 53.2450928, "longitude": 6.5783592, "name": "Tandartspraktijk de Hunze", "address": "Granpr\u00e9 Moli\u00e8reweg 53", "city": "Groningen", "postcode": "9731LC", "phone": "+31 50 541 9777", "website": "https://www.praktijkdehunze.nl/"}, {"latitude": 53.2266528, "longitude": 6.6020479, "name": "Jorien Kiewiet Mondhygi\u00ebnist", "address": "Timpweg 28", "city": "Groningen", "postcode": "9731AL", "phone": "", "website": "https://www.jorienkiewiet.nl/"}, {"latitude": 53.2334716, "longitude": 6.603043, "name": "Mondhygi\u00ebnist Selma Burrekers", "address": "Bieslookstraat 31-1", "city": "Groningen", "postcode": "9731HH", "phone": "", "website": "https://mondhygienist-selmaburrekers.nl/"}, {"latitude": 53.2332628, "longitude": 6.5977195, "name": "tandartsen Dethmers en Munneke", "address": "Gentiaanstraat 50", "city": "Groningen", "postcode": "9731BP", "phone": "", "website": "https://tandartspraktijkulgersmaborg.nl/"}, {"latitude": 51.8356498, "longitude": 4.3144903, "name": "Tandzorg Vogelenzang", "address": "Rigolettostraat 105", "city": "Spijkenisse", "postcode": "3208PK", "phone": "", "website": ""}, {"latitude": 51.832644, "longitude": 4.3196835, "name": "Tandartspraktijk THC-ZHE", "address": "Lenteakker 5C", "city": "Spijkenisse", "postcode": "3206TB", "phone": "+31 181 672317", "website": "https://www.thczhe.nl"}, {"latitude": 51.8326061, "longitude": 4.3198903, "name": "tandprothetisch centrum levident", "address": "Lenteakker 5b", "city": "Spijkenisse", "postcode": "3206TB", "phone": "", "website": ""}, {"latitude": 51.9606516, "longitude": 5.981397, "name": "Dental Clinics Westervoort", "address": "Het Vergun 13", "city": "Westervoort", "postcode": "6931KC", "phone": "+31 26 311 8429", "website": "https://www.dentalclinics.nl/tandarts/westervoort/"}, {"latitude": 51.9607342, "longitude": 5.9810634, "name": "Dental Clinics Westervoort", "address": "Het Vergun 15", "city": "Westervoort", "postcode": "6931KC", "phone": "+31 26 311 8429", "website": "https://www.dentalclinics.nl/tandarts/westervoort/"}, {"latitude": 51.9599484, "longitude": 5.9666162, "name": "Tandcentrum Westervoort", "address": "Klapstraat 93", "city": "Westervoort", "postcode": "6931CG", "phone": "+31 26 311 8135", "website": "https://www.tandcentrumwestervoort.nl"}, {"latitude": 52.1324245, "longitude": 6.6111543, "name": "Jansen en Linsen", "address": "Koolmeesstraat 2", "city": "Neede", "postcode": "7161HZ", "phone": "", "website": ""}, {"latitude": 52.2849068, "longitude": 4.5755284, "name": "Dental Clinic", "address": "Wilsonweg 1", "city": "Hillegom", "postcode": "2182LR", "phone": "", "website": ""}, {"latitude": 51.891643, "longitude": 5.0957134, "name": "Dent All Care", "address": "Vlietskant 10", "city": "Leerdam", "postcode": "4141CL", "phone": "", "website": ""}, {"latitude": 52.2949268, "longitude": 4.5797578, "name": "Tandartspraktijk Hillegom", "address": "Hoofdstraat 18", "city": "Hillegom", "postcode": "2181ED", "phone": "+31 252 519870", "website": "https://tandartspraktijkhillegom.nl"}, {"latitude": 52.0805246, "longitude": 5.0362729, "name": "Tandheelkundig Centrum Meerndijk", "address": "Meerndijk 56", "city": "De Meern", "postcode": "3454HS", "phone": "", "website": "https://meerndijk.tandartsennet.nl"}, {"latitude": 52.1008056, "longitude": 6.6516395, "name": "Tandartspraktijk De Vries Reilingh", "address": "Kruiskamplaan 1a", "city": "Eibergen", "postcode": "7152GA", "phone": "", "website": ""},